{
"type": "FeatureCollection",
"name": "velo",
"crs": { "type": "name", "properties": { "name": "urn:ogc:def:crs:OGC:1.3:CRS84" } },
"features": [
{ "type": "Feature", "properties": { "OBJECTID": 225888, "Objecttype": "VELOSTATION", "Type_velo": "ENKELZIJDIG", "Ligging": "VOETPAD", "Straatnaam": "GODEFRIDUSKAAI", "Huisnummer": null, "Aanvulling": "thv Q-park", "District": "ANTWERPEN", "Postcode": "2000", "Objectcode": "VE_0000129", "Gebruik": "IN_GEBRUIK", "Aantal_plaatsen": 36 }, "geometry": { "type": "Point", "coordinates": [ 4.408980241805866, 51.22809856261614 ] } },
{ "type": "Feature", "properties": { "OBJECTID": 225889, "Objecttype": "VELOSTATION", "Type_velo": "ENKELZIJDIG", "Ligging": "PLEIN", "Straatnaam": "Koningin Astridplein (2018)", "Huisnummer": null, "Aanvulling": "to station 1", "District": "ANTWERPEN", "Postcode": "2018", "Objectcode": "VE_0000002", "Gebruik": "IN_GEBRUIK", "Aantal_plaatsen": 36 }, "geometry": { "type": "Point", "coordinates": [ 4.420714866198774, 51.217677805876271 ] } },
{ "type": "Feature", "properties": { "OBJECTID": 225890, "Objecttype": "VELOSTATION", "Type_velo": "DUBBELZIJDIG", "Ligging": "VOETPAD", "Straatnaam": "Meir (2000)", "Huisnummer": "84", "Aanvulling": null, "District": "ANTWERPEN", "Postcode": "2000", "Objectcode": "VE_0000026", "Gebruik": "IN_GEBRUIK", "Aantal_plaatsen": 21 }, "geometry": { "type": "Point", "coordinates": [ 4.412407312236119, 51.218247899171118 ] } },
{ "type":"Feature", "properties": { "OBJECTID": 225893, "Objecttype": "VELOSTATION", "Type_velo": "ENKELZIJDIG", "Ligging": "VOETGANGERSZONE", "Straatnaam": "Cockerillkaai (2000)", "Huisnummer": null, "Aanvulling": null, "District": "ANTWERPEN", "Postcode": "2000", "Objectcode": "VE_0000035", "Gebruik": "IN_GEBRUIK", "Aantal_plaatsen": 36 }, "geometry": { "type": "Point", "coordinates": [ 4.387591742767317, 51.210272979762578 ] } },
{ "type":  "Feature", "properties": { "OBJECTID": 225891, "Objecttype": "VELOSTATION", "Type_velo": "ENKELZIJDIG", "Ligging": "VOETPAD", "Straatnaam": "Eiermarkt (2000)", "Huisnummer": "12", "Aanvulling": null, "District": "ANTWERPEN", "Postcode": "2000", "Objectcode": "VE_0000019", "Gebruik": "BUITEN_GEBRUIK", "Aantal_plaatsen": 24 }, "geometry": { "type": "Point", "coordinates": [ 4.404046676085695, 51.219032966400725 ] } },
{ "type": "Feature", "properties": { "OBJECTID": 225892, "Objecttype": "VELOSTATION", "Type_velo": "ENKELZIJDIG", "Ligging": "PARKEERZONE", "Straatnaam": "Groenkerkhofstraat (2000)", "Huisnummer": "2", "Aanvulling": "thv Nationalestraat", "District": "ANTWERPEN", "Postcode": "2000", "Objectcode": "VE_0000020", "Gebruik": "IN_GEBRUIK", "Aantal_plaatsen": 27 }, "geometry": { "type": "Point", "coordinates": [ 4.400657929074812, 51.218684790634349 ] } },
{ "type": "Feature", "properties": { "OBJECTID": 225894, "Objecttype": "VELOSTATION", "Type_velo": "ENKELZIJDIG", "Ligging": "VOETPAD", "Straatnaam": "PALEISSTRAAT", "Huisnummer": "147", "Aanvulling": null, "District": "ANTWERPEN", "Postcode": "2018", "Objectcode": "VE_0000094", "Gebruik": "IN_GEBRUIK", "Aantal_plaatsen": 18 }, "geometry": { "type": "Point", "coordinates": [ 4.396243875341884, 51.204725352723209 ] } },
{ "type": "Feature", "properties": { "OBJECTID": 225895, "Objecttype": "VELOSTATION", "Type_velo": "DUBBELZIJDIG", "Ligging": "GROENZONE", "Straatnaam": "Singel (2018)", "Huisnummer": null, "Aanvulling": "tssn Singel/Brederodestraat", "District": "ANTWERPEN", "Postcode": "2018", "Objectcode": "VE_0000012", "Gebruik": "IN_GEBRUIK", "Aantal_plaatsen": 36 }, "geometry": { "type": "Point", "coordinates": [ 4.390133929205514, 51.199392358461864 ] } },
{ "type": "Feature", "properties": { "OBJECTID": 225896, "Objecttype": "VELOSTATION", "Type_velo": "ENKELZIJDIG", "Ligging": "VOETPAD", "Straatnaam": "Lange Nieuwstraat (2000)", "Huisnummer": "105", "Aanvulling": null, "District": "ANTWERPEN", "Postcode": "2000", "Objectcode": "VE_0000027", "Gebruik": "IN_GEBRUIK", "Aantal_plaatsen": 36 }, "geometry": { "type": "Point", "coordinates": [ 4.411640680463491, 51.219527947407038 ] } },
{ "type": "Feature", "properties": { "OBJECTID": 225897, "Objecttype": "VELOSTATION", "Type_velo": "ENKELZIJDIG", "Ligging": "VOETPAD", "Straatnaam": "Belgiëlei (2018)", "Huisnummer": "99", "Aanvulling": null, "District": "ANTWERPEN", "Postcode": "2018", "Objectcode": "VE_0000044", "Gebruik": "IN_GEBRUIK", "Aantal_plaatsen": 36 }, "geometry": { "type": "Point", "coordinates": [ 4.418357190227442, 51.205829780783553 ] } },
{ "type": "Feature", "properties": { "OBJECTID": 225898, "Objecttype": "VELOSTATION", "Type_velo": "ENKELZIJDIG", "Ligging": "VOETPAD", "Straatnaam": "Mercatorstraat (2018)", "Huisnummer": "18", "Aanvulling": "to 18", "District": "ANTWERPEN", "Postcode": "2018", "Objectcode": "VE_0000006", "Gebruik": "IN_GEBRUIK", "Aantal_plaatsen": 24 }, "geometry": { "type": "Point", "coordinates": [ 4.422479328760365, 51.209934450398691 ] } },
{ "type": "Feature", "properties": { "OBJECTID": 225899, "Objecttype": "VELOSTATION", "Type_velo": "DUBBELZIJDIG", "Ligging": "VOETGANGERSZONE", "Straatnaam": "Van der Meydenstraat (2140)", "Huisnummer": "123", "Aanvulling": null, "District": "BORGERHOUT", "Postcode": "2140", "Objectcode": "VE_0000111", "Gebruik": "IN_GEBRUIK", "Aantal_plaatsen": 30 }, "geometry": { "type": "Point", "coordinates": [ 4.427764796459983, 51.210188589575438 ] } },
{ "type": "Feature", "properties": { "OBJECTID": 225900, "Objecttype": "VELOSTATION", "Type_velo": "ENKELZIJDIG", "Ligging": "VOETPAD", "Straatnaam": "Lange Stuivenbergstraat (2060)", "Huisnummer": "86-88", "Aanvulling": "to 86-88", "District": "ANTWERPEN", "Postcode": "2060", "Objectcode": "VE_0000101", "Gebruik": "IN_GEBRUIK", "Aantal_plaatsen": 36 }, "geometry": { "type": "Point", "coordinates": [ 4.432157536392651, 51.22407308750585 ] } },
{ "type": "Feature", "properties": { "OBJECTID": 225901, "Objecttype": "VELOSTATION", "Type_velo": "ENKELZIJDIG", "Ligging": "PARKEERZONE", "Straatnaam": "Schijnpoortweg (2060)", "Huisnummer": "27-29", "Aanvulling": null, "District": "ANTWERPEN", "Postcode": "2060", "Objectcode": "VE_0000120", "Gebruik": "IN_GEBRUIK", "Aantal_plaatsen": 24 }, "geometry": { "type": "Point", "coordinates": [ 4.439225523447577, 51.227604325635532 ] } },
{ "type": "Feature", "properties": { "OBJECTID": 225902, "Objecttype": "VELOSTATION", "Type_velo": "ENKELZIJDIG", "Ligging": "VOETPAD", "Straatnaam": "August Vermeylenlaan (2050)", "Huisnummer": "7", "Aanvulling": "to 7", "District": "ANTWERPEN", "Postcode": "2050", "Objectcode": "VE_0000144", "Gebruik": "IN_GEBRUIK", "Aantal_plaatsen": 36 }, "geometry": { "type": "Point", "coordinates": [ 4.378698705217168, 51.231408266022896 ] } },
{ "type": "Feature", "properties": { "OBJECTID": 225903, "Objecttype": "VELOSTATION", "Type_velo": "ENKELZIJDIG", "Ligging": "VOETPAD", "Straatnaam": "August Vermeylenlaan (2050)", "Huisnummer": null, "Aanvulling": "charles de costerlaan", "District": "ANTWERPEN", "Postcode": "2050", "Objectcode": "VE_0000145", "Gebruik": "IN_GEBRUIK", "Aantal_plaatsen": 24 }, "geometry": { "type": "Point", "coordinates": [ 4.37856193645652, 51.227963022811181 ] } },
{ "type": "Feature", "properties": { "OBJECTID": 225904, "Objecttype": "VELOSTATION", "Type_velo": "ENKELZIJDIG", "Ligging": "GROENZONE", "Straatnaam": "Beatrijslaan (2050)", "Huisnummer": "42", "Aanvulling": null, "District": "ANTWERPEN", "Postcode": "2050", "Objectcode": "VE_0000153", "Gebruik": "IN_GEBRUIK", "Aantal_plaatsen": 36 }, "geometry": { "type": "Point", "coordinates": [ 4.38558346368546, 51.218389537134378 ] } },
{ "type": "Feature", "properties": { "OBJECTID": 225905, "Objecttype": "VELOSTATION", "Type_velo": "DUBBELZIJDIG", "Ligging": "VOETPAD", "Straatnaam": "Blancefloerlaan (2050)", "Huisnummer": "163-165", "Aanvulling": null, "District": "ANTWERPEN", "Postcode": "2050", "Objectcode": "VE_0000152", "Gebruik": "IN_GEBRUIK", "Aantal_plaatsen": 36 }, "geometry": { "type": "Point", "coordinates": [ 4.375601960721252, 51.220041326115258 ] } },
{ "type": "Feature", "properties": { "OBJECTID": 225906, "Objecttype": "VELOSTATION", "Type_velo": "ENKELZIJDIG", "Ligging": "VOETPAD", "Straatnaam": "Blancefloerlaan (2050)", "Huisnummer": null, "Aanvulling": "to frederick van eedenplein", "District": "ANTWERPEN", "Postcode": "2050", "Objectcode": "VE_0000149", "Gebruik": "IN_GEBRUIK", "Aantal_plaatsen": 36 }, "geometry": { "type": "Point", "coordinates": [ 4.386436754377233, 51.220594695933713 ] } },
{ "type": "Feature", "properties": { "OBJECTID": 225907, "Objecttype": "VELOSTATION", "Type_velo": "ENKELZIJDIG", "Ligging": "VOETPAD", "Straatnaam": "Esmoreitlaan (2050)", "Huisnummer": "13", "Aanvulling": "thv lodewijk van veltheimlaan", "District": "ANTWERPEN", "Postcode": "2050", "Objectcode": "VE_0000142", "Gebruik": "IN_GEBRUIK", "Aantal_plaatsen": 36 }, "geometry": { "type": "Point", "coordinates": [ 4.382536667372692, 51.233382098244654 ] } },
{ "type": "Feature", "properties": { "OBJECTID": 225908, "Objecttype": "VELOSTATION", "Type_velo": "ENKELZIJDIG", "Ligging": "VOETPAD", "Straatnaam": "Frederik van Eedenplein (2050)", "Huisnummer": "4", "Aanvulling": "to 4", "District": "ANTWERPEN", "Postcode": "2050", "Objectcode": "VE_0000148", "Gebruik": "IN_GEBRUIK", "Aantal_plaatsen": 36 }, "geometry": { "type": "Point", "coordinates": [ 4.386227683001466, 51.223077567757713 ] } },
{ "type": "Feature", "properties": { "OBJECTID": 225909, "Objecttype": "VELOSTATION", "Type_velo": "ENKELZIJDIG", "Ligging": "VOETPAD", "Straatnaam": "Gloriantlaan (2050)", "Huisnummer": "31", "Aanvulling": null, "District": "ANTWERPEN", "Postcode": "2050", "Objectcode": "VE_0000143", "Gebruik": "IN_GEBRUIK", "Aantal_plaatsen": 24 }, "geometry": { "type": "Point", "coordinates": [ 4.385861717123061, 51.231048082777242 ] } },
{ "type": "Feature", "properties": { "OBJECTID": 225910, "Objecttype": "VELOSTATION", "Type_velo": "ENKELZIJDIG", "Ligging": "VOETPAD", "Straatnaam": "Gloriantlaan (2050)", "Huisnummer": null, "Aanvulling": "thv kastanjedreef", "District": "ANTWERPEN", "Postcode": "2050", "Objectcode": "VE_0000141", "Gebruik": "IN_GEBRUIK", "Aantal_plaatsen": 36 }, "geometry": { "type": "Point", "coordinates": [ 4.386889467641562, 51.23518246441423 ] } },
{ "type": "Feature", "properties": { "OBJECTID": 225911, "Objecttype": "VELOSTATION", "Type_velo": "ENKELZIJDIG", "Ligging": "VOETPAD", "Straatnaam": "Thonetlaan (2050)", "Huisnummer": null, "Aanvulling": "to jachthaven", "District": "ANTWERPEN", "Postcode": "2050", "Objectcode": "VE_0000140", "Gebruik": "IN_GEBRUIK", "Aantal_plaatsen": 36 }, "geometry": { "type": "Point", "coordinates": [ 4.391622268775782, 51.231309367949798 ] } },
{ "type": "Feature", "properties": { "OBJECTID": 225912, "Objecttype": "VELOSTATION", "Type_velo": "ENKELZIJDIG", "Ligging": "VOETPAD", "Straatnaam": "Halewijnlaan (2050)", "Huisnummer": "88", "Aanvulling": null, "District": "ANTWERPEN", "Postcode": "2050", "Objectcode": "VE_0000147", "Gebruik": "IN_GEBRUIK", "Aantal_plaatsen": 24 }, "geometry": { "type": "Point", "coordinates": [ 4.377881230366322, 51.224011736170844 ] } },
{ "type": "Feature", "properties": { "OBJECTID": 225913, "Objecttype": "VELOSTATION", "Type_velo": "ENKELZIJDIG", "Ligging": "VOETPAD", "Straatnaam": "Reinaartlaan (2050)", "Huisnummer": null, "Aanvulling": "thv gloriantlaan", "District": "ANTWERPEN", "Postcode": "2050", "Objectcode": "VE_0000146", "Gebruik": "IN_GEBRUIK", "Aantal_plaatsen": 33 }, "geometry": { "type": "Point", "coordinates": [ 4.385874812891715, 51.227678187742235 ] } },
{ "type": "Feature", "properties": { "OBJECTID": 225914, "Objecttype": "VELOSTATION", "Type_velo": "ENKELZIJDIG", "Ligging": "VOETPAD", "Straatnaam": "Waterhoenlaan (2050)", "Huisnummer": "12", "Aanvulling": null, "District": "ANTWERPEN", "Postcode": "2050", "Objectcode": "VE_0000150", "Gebruik": "IN_GEBRUIK", "Aantal_plaatsen": 24 }, "geometry": { "type": "Point", "coordinates": [ 4.381716228955811, 51.220010540993137 ] } },
{ "type": "Feature", "properties": { "OBJECTID": 225915, "Objecttype": "VELOSTATION", "Type_velo": "DUBBELZIJDIG", "Ligging": "VOETPAD", "Straatnaam": "Amsterdamstraat (2000)", "Huisnummer": null, "Aanvulling": "thv rijnkaai", "District": "ANTWERPEN", "Postcode": "2000", "Objectcode": "VE_0000138", "Gebruik": "IN_GEBRUIK", "Aantal_plaatsen": 24 }, "geometry": { "type": "Point", "coordinates": [ 4.403577083498241, 51.231344523861218 ] } },
{ "type": "Feature", "properties": { "OBJECTID": 225916, "Objecttype": "VELOSTATION", "Type_velo": "ENKELZIJDIG", "Ligging": "VOETPAD", "Straatnaam": "Londenstraat (2000)", "Huisnummer": "53", "Aanvulling": null, "District": "ANTWERPEN", "Postcode": "2000", "Objectcode": "VE_0000139", "Gebruik": "IN_GEBRUIK", "Aantal_plaatsen": 21 }, "geometry": { "type": "Point", "coordinates": [ 4.412356042257804, 51.231072460108379 ] } },
{ "type": "Feature", "properties": { "OBJECTID": 225917, "Objecttype": "VELOSTATION", "Type_velo": "DUBBELZIJDIG", "Ligging": "VOETPAD", "Straatnaam": "Sint-Laureiskaai (2000)", "Huisnummer": null, "Aanvulling": null, "District": "ANTWERPEN", "Postcode": "2000", "Objectcode": "VE_0000137", "Gebruik": "IN_GEBRUIK", "Aantal_plaatsen": 36 }, "geometry": { "type": "Point", "coordinates": [ 4.405679588040064, 51.229734753565381 ] } },
{ "type": "Feature", "properties": { "OBJECTID": 225918, "Objecttype": "VELOSTATION", "Type_velo": "ENKELZIJDIG", "Ligging": "VOETPAD", "Straatnaam": "Wisselstraat (2000)", "Huisnummer": "12", "Aanvulling": "to 12", "District": "ANTWERPEN", "Postcode": "2000", "Objectcode": "VE_0000060", "Gebruik": "IN_GEBRUIK", "Aantal_plaatsen": 36 }, "geometry": { "type": "Point", "coordinates": [ 4.400472671737623, 51.221574510004366 ] } },
{ "type": "Feature", "properties": { "OBJECTID": 225919, "Objecttype": "VELOSTATION", "Type_velo": "DUBBELZIJDIG", "Ligging": "VOETPAD", "Straatnaam": "Italiëlei (2000)", "Huisnummer": "4", "Aanvulling": "thv FOD financien", "District": "ANTWERPEN", "Postcode": "2000", "Objectcode": "VE_0000127", "Gebruik": "IN_GEBRUIK", "Aantal_plaatsen": 30 }, "geometry": { "type": "Point", "coordinates": [ 4.41336407699781, 51.22825531865265 ] } },
{ "type": "Feature", "properties": { "OBJECTID": 225920, "Objecttype": "VELOSTATION", "Type_velo": "ENKELZIJDIG", "Ligging": "VOETPAD", "Straatnaam": "Jan Van Rijswijcklaan (2018)", "Huisnummer": "86", "Aanvulling": null, "District": "ANTWERPEN", "Postcode": "2018", "Objectcode": "VE_0000014", "Gebruik": "IN_GEBRUIK", "Aantal_plaatsen": 36 }, "geometry": { "type": "Point", "coordinates": [ 4.405680188587366, 51.196711093146789 ] } },
{ "type": "Feature", "properties": { "OBJECTID": 225921, "Objecttype": "VELOSTATION", "Type_velo": "ENKELZIJDIG", "Ligging": "VOETPAD", "Straatnaam": "Sint-Paulusstraat (2000)", "Huisnummer": "42", "Aanvulling": "thv lange koepoortstraat", "District": "ANTWERPEN", "Postcode": "2000", "Objectcode": "VE_0000050", "Gebruik": "IN_GEBRUIK", "Aantal_plaatsen": 21 }, "geometry": { "type": "Point", "coordinates": [ 4.402951502346943, 51.223757806680702 ] } },
{ "type": "Feature", "properties": { "OBJECTID": 225922, "Objecttype": "VELOSTATION", "Type_velo": "ENKELZIJDIG", "Ligging": "VOETPAD", "Straatnaam": "Oudevaartplaats (2000)", "Huisnummer": null, "Aanvulling": "thv frankrijklei", "District": "ANTWERPEN", "Postcode": "2000", "Objectcode": "VE_0000077", "Gebruik": "IN_GEBRUIK", "Aantal_plaatsen": 36 }, "geometry": { "type": "Point", "coordinates": [ 4.409244824045476, 51.212471533265706 ] } },
{ "type": "Feature", "properties": { "OBJECTID": 225923, "Objecttype": "VELOSTATION", "Type_velo": "ENKELZIJDIG", "Ligging": "VOETPAD", "Straatnaam": "Amerikalei (2000)", "Huisnummer": "162", "Aanvulling": "graaf van hoorplein thv graaf van hoornstraat", "District": "ANTWERPEN", "Postcode": "2000", "Objectcode": "VE_0000080", "Gebruik": "IN_GEBRUIK", "Aantal_plaatsen": 36 }, "geometry": { "type": "Point", "coordinates": [ 4.392966975123548, 51.205956391479063 ] } },
{ "type": "Feature", "properties": { "OBJECTID": 225924, "Objecttype": "VELOSTATION", "Type_velo": "ENKELZIJDIG", "Ligging": "VOETPAD", "Straatnaam": "Desguinlei (2018)", "Huisnummer": "246", "Aanvulling": "to 246 oh plein", "District": "ANTWERPEN", "Postcode": "2018", "Objectcode": "VE_0000040", "Gebruik": "IN_GEBRUIK", "Aantal_plaatsen": 36 }, "geometry": { "type": "Point", "coordinates": [ 4.396321129672755, 51.196848948815664 ] } },
{ "type": "Feature", "properties": { "OBJECTID": 225925, "Objecttype": "VELOSTATION", "Type_velo": "ENKELZIJDIG", "Ligging": "PARKEERZONE", "Straatnaam": "Duinstraat (2060)", "Huisnummer": "83-87", "Aanvulling": null, "District": "ANTWERPEN", "Postcode": "2060", "Objectcode": "VE_0000102", "Gebruik": "IN_GEBRUIK", "Aantal_plaatsen": 36 }, "geometry": { "type": "Point", "coordinates": [ 4.430043657587365, 51.222404830344452 ] } },
{ "type": "Feature", "properties": { "OBJECTID": 225926, "Objecttype": "VELOSTATION", "Type_velo": "DUBBELZIJDIG", "Ligging": "VOETPAD", "Straatnaam": "Lange Dijkstraat (2060)", "Huisnummer": "46", "Aanvulling": "thv van aerdtstraat", "District": "ANTWERPEN", "Postcode": "2060", "Objectcode": "VE_0000126", "Gebruik": "IN_GEBRUIK", "Aantal_plaatsen": 36 }, "geometry": { "type": "Point", "coordinates": [ 4.4189870052235, 51.228033782151172 ] } },
{ "type": "Feature", "properties": { "OBJECTID": 225927, "Objecttype": "VELOSTATION", "Type_velo": "ENKELZIJDIG", "Ligging": "PLEIN", "Straatnaam": "Nationalestraat (2000)", "Huisnummer": "111-113", "Aanvulling": "to 111-113 thv lange vlierstraat", "District": "ANTWERPEN", "Postcode": "2000", "Objectcode": "VE_0000076", "Gebruik": "IN_GEBRUIK", "Aantal_plaatsen": 24 }, "geometry": { "type": "Point", "coordinates": [ 4.397947454346545, 51.214115970126898 ] } },
{ "type": "Feature", "properties": { "OBJECTID": 225928, "Objecttype": "VELOSTATION", "Type_velo": "ENKELZIJDIG", "Ligging": "VOETPAD", "Straatnaam": "Belgiëlei (2018)", "Huisnummer": "157", "Aanvulling": "thv Greterystraat", "District": "ANTWERPEN", "Postcode": "2018", "Objectcode": "VE_0000043", "Gebruik": "IN_GEBRUIK", "Aantal_plaatsen": 30 }, "geometry": { "type": "Point", "coordinates": [ 4.415172320892482, 51.203589201572015 ] } },
{ "type": "Feature", "properties": { "OBJECTID": 225929, "Objecttype": "VELOSTATION", "Type_velo": "ENKELZIJDIG", "Ligging": "PLEIN", "Straatnaam": "Burgemeester E. Ryckaertsplein (2600)", "Huisnummer": null, "Aanvulling": "NMBS station Berchem", "District": "BERCHEM", "Postcode": "2600", "Objectcode": "VE_0000008", "Gebruik": "IN_GEBRUIK", "Aantal_plaatsen": 30 }, "geometry": { "type": "Point", "coordinates": [ 4.433967323600882, 51.200994261151315 ] } },
{ "type": "Feature", "properties": { "OBJECTID": 225930, "Objecttype": "VELOSTATION", "Type_velo": "DUBBELZIJDIG", "Ligging": "VOETPAD", "Straatnaam": "Uitbreidingstraat (2600)", "Huisnummer": "578", "Aanvulling": null, "District": "BERCHEM", "Postcode": "2600", "Objectcode": "VE_0000112", "Gebruik": "IN_GEBRUIK", "Aantal_plaatsen": 36 }, "geometry": { "type": "Point", "coordinates": [ 4.436755928483404, 51.203447354703563 ] } },
{ "type": "Feature", "properties": { "OBJECTID": 225931, "Objecttype": "VELOSTATION", "Type_velo": "ENKELZIJDIG", "Ligging": "PARKEERZONE", "Straatnaam": "Karel Rogierstraat (2000)", "Huisnummer": "2-4", "Aanvulling": null, "District": "ANTWERPEN", "Postcode": "2000", "Objectcode": "VE_0000016", "Gebruik": "IN_GEBRUIK", "Aantal_plaatsen": 27 }, "geometry": { "type": "Point", "coordinates": [ 4.396508465315326, 51.210171110045145 ] } },
{ "type": "Feature", "properties": { "OBJECTID": 225932, "Objecttype": "VELOSTATION", "Type_velo": "ENKELZIJDIG", "Ligging": "PARKEERZONE", "Straatnaam": "Fonteinstraat (2140)", "Huisnummer": "70", "Aanvulling": "to 70", "District": "BORGERHOUT", "Postcode": "2140", "Objectcode": "VE_0000069", "Gebruik": "IN_GEBRUIK", "Aantal_plaatsen": 36 }, "geometry": { "type": "Point", "coordinates": [ 4.441988018282119, 51.211273357550617 ] } },
{ "type": "Feature", "properties": { "OBJECTID": 225933, "Objecttype": "VELOSTATION", "Type_velo": "DUBBELZIJDIG", "Ligging": "GROENZONE", "Straatnaam": "Blancefloerlaan (2050)", "Huisnummer": "48a", "Aanvulling": "to 48a middenberm thv halewijnlaan", "District": "ANTWERPEN", "Postcode": "2050", "Objectcode": "VE_0000151", "Gebruik": "IN_GEBRUIK", "Aantal_plaatsen": 36 }, "geometry": { "type": "Point", "coordinates": [ 4.378584846902503, 51.220367469273327 ] } },
{ "type": "Feature", "properties": { "OBJECTID": 225934, "Objecttype": "VELOSTATION", "Type_velo": "ENKELZIJDIG", "Ligging": "VOETPAD", "Straatnaam": "De Keyserlei (2018)", "Huisnummer": null, "Aanvulling": "verplaatst nr Anneessenstraat", "District": "ANTWERPEN", "Postcode": "2018", "Objectcode": "VE_0000024", "Gebruik": "IN_GEBRUIK", "Aantal_plaatsen": 36 }, "geometry": { "type": "Point", "coordinates": [ 4.417735371035468, 51.217936694732806 ] } },
{ "type": "Feature", "properties": { "OBJECTID": 225935, "Objecttype": "VELOSTATION", "Type_velo": "ENKELZIJDIG", "Ligging": "VOETPAD", "Straatnaam": "Grotesteenweg (2600)", "Huisnummer": null, "Aanvulling": "thv Boomgaardstraat", "District": "BERCHEM", "Postcode": "2600", "Objectcode": "VE_0000046", "Gebruik": "IN_GEBRUIK", "Aantal_plaatsen": 36 }, "geometry": { "type": "Point", "coordinates": [ 4.41560775145259, 51.198996940688431 ] } },
{ "type": "Feature", "properties": { "OBJECTID": 225936, "Objecttype": "VELOSTATION", "Type_velo": "DUBBELZIJDIG", "Ligging": "VOETPAD", "Straatnaam": "Boomgaardstraat (2018)", "Huisnummer": null, "Aanvulling": "thv militair hospitaal", "District": "ANTWERPEN", "Postcode": "2018", "Objectcode": "VE_0000047", "Gebruik": "IN_GEBRUIK", "Aantal_plaatsen": 36 }, "geometry": { "type": "Point", "coordinates": [ 4.42361496228594, 51.201582786102058 ] } },
{ "type": "Feature", "properties": { "OBJECTID": 225937, "Objecttype": "VELOSTATION", "Type_velo": "DUBBELZIJDIG", "Ligging": "PLEIN", "Straatnaam": "Provinciestraat (2018)", "Huisnummer": "81", "Aanvulling": "to 81", "District": "ANTWERPEN", "Postcode": "2018", "Objectcode": "VE_0000119", "Gebruik": "IN_GEBRUIK", "Aantal_plaatsen": 24 }, "geometry": { "type": "Point", "coordinates": [ 4.425498633293496, 51.21544693162457 ] } },
{ "type": "Feature", "properties": { "OBJECTID": 225938, "Objecttype": "VELOSTATION", "Type_velo": "ENKELZIJDIG", "Ligging": "VOETPAD", "Straatnaam": "Van Kerckhovenstraat (2060)", "Huisnummer": "16", "Aanvulling": "to 16 thv st-norbertusstraat", "District": "ANTWERPEN", "Postcode": "2060", "Objectcode": "VE_0000125", "Gebruik": "IN_GEBRUIK", "Aantal_plaatsen": 36 }, "geometry": { "type": "Point", "coordinates": [ 4.423404418278521, 51.226063450057488 ] } },
{ "type": "Feature", "properties": { "OBJECTID": 225939, "Objecttype": "VELOSTATION", "Type_velo": "DUBBELZIJDIG", "Ligging": "PLEIN", "Straatnaam": "Mutsaardstraat (2000)", "Huisnummer": null, "Aanvulling": "mutsaardplein thv blindestraat", "District": "ANTWERPEN", "Postcode": "2000", "Objectcode": "VE_0000051", "Gebruik": "IN_GEBRUIK", "Aantal_plaatsen": 36 }, "geometry": { "type": "Point", "coordinates": [ 4.406211129585075, 51.222881231110989 ] } },
{ "type": "Feature", "properties": { "OBJECTID": 225940, "Objecttype": "VELOSTATION", "Type_velo": "ENKELZIJDIG", "Ligging": "PLEIN", "Straatnaam": "Fransenplaats (2018)", "Huisnummer": null, "Aanvulling": "thv Moonstraat", "District": "ANTWERPEN", "Postcode": "2018", "Objectcode": "VE_0000041", "Gebruik": "IN_GEBRUIK", "Aantal_plaatsen": 27 }, "geometry": { "type": "Point", "coordinates": [ 4.411794060905467, 51.210771280380236 ] } },
{ "type": "Feature", "properties": { "OBJECTID": 225941, "Objecttype": "VELOSTATION", "Type_velo": "ENKELZIJDIG", "Ligging": "VOETPAD", "Straatnaam": "Vredestraat (2600)", "Huisnummer": "99", "Aanvulling": "thv zonnebloemstraat", "District": "BERCHEM", "Postcode": "2600", "Objectcode": "VE_0000055", "Gebruik": "IN_GEBRUIK", "Aantal_plaatsen": 33 }, "geometry": { "type": "Point", "coordinates": [ 4.428067052910022, 51.196912943795894 ] } },
{ "type": "Feature", "properties": { "OBJECTID": 225942, "Objecttype": "VELOSTATION", "Type_velo": "DUBBELZIJDIG", "Ligging": "PLEIN", "Straatnaam": "Kievitplein (2018)", "Huisnummer": null, "Aanvulling": null, "District": "ANTWERPEN", "Postcode": "2018", "Objectcode": "VE_0000003", "Gebruik": "IN_GEBRUIK", "Aantal_plaatsen": 30 }, "geometry": { "type": "Point", "coordinates": [ 4.421775891216312, 51.213025111036472 ] } },
{ "type": "Feature", "properties": { "OBJECTID": 225943, "Objecttype": "VELOSTATION", "Type_velo": "ENKELZIJDIG", "Ligging": "VOETPAD", "Straatnaam": "Dageraadplaats (2018)", "Huisnummer": null, "Aanvulling": null, "District": "ANTWERPEN", "Postcode": "2018", "Objectcode": "VE_0000110", "Gebruik": "IN_GEBRUIK", "Aantal_plaatsen": 36 }, "geometry": { "type": "Point", "coordinates": [ 4.430119716383369, 51.206877079863872 ] } },
{ "type": "Feature", "properties": { "OBJECTID": 225944, "Objecttype": "VELOSTATION", "Type_velo": "ENKELZIJDIG", "Ligging": "PARKEERZONE", "Straatnaam": "Statiestraat (2600)", "Huisnummer": "53", "Aanvulling": "thv victor jacobslei", "District": "BERCHEM", "Postcode": "2600", "Objectcode": "VE_0000061", "Gebruik": "IN_GEBRUIK", "Aantal_plaatsen": 36 }, "geometry": { "type": "Point", "coordinates": [ 4.425435171526422, 51.197937422022108 ] } },
{ "type": "Feature", "properties": { "OBJECTID": 225945, "Objecttype": "VELOSTATION", "Type_velo": "ENKELZIJDIG", "Ligging": "VOETPAD", "Straatnaam": "Grotesteenweg (2600)", "Huisnummer": null, "Aanvulling": "thv Driekoningenstraat", "District": "BERCHEM", "Postcode": "2600", "Objectcode": "VE_0000021", "Gebruik": "IN_GEBRUIK", "Aantal_plaatsen": 24 }, "geometry": { "type": "Point", "coordinates": [ 4.419263396082433, 51.195391973060161 ] } },
{ "type": "Feature", "properties": { "OBJECTID": 225946, "Objecttype": "VELOSTATION", "Type_velo": "ENKELZIJDIG", "Ligging": "VOETPAD", "Straatnaam": "Statiestraat (2600)", "Huisnummer": null, "Aanvulling": "thv Posthoflei", "District": "BERCHEM", "Postcode": "2600", "Objectcode": "VE_0000022", "Gebruik": "IN_GEBRUIK", "Aantal_plaatsen": 33 }, "geometry": { "type": "Point", "coordinates": [ 4.430621199572773, 51.199797300416513 ] } },
{ "type": "Feature", "properties": { "OBJECTID": 225947, "Objecttype": "VELOSTATION", "Type_velo": "ENKELZIJDIG", "Ligging": "PLEIN", "Straatnaam": "Laar (2140)", "Huisnummer": null, "Aanvulling": "thv Kerkplein", "District": "BORGERHOUT", "Postcode": "2140", "Objectcode": "VE_0000030", "Gebruik": "IN_GEBRUIK", "Aantal_plaatsen": 24 }, "geometry": { "type": "Point", "coordinates": [ 4.433346846298436, 51.216260914584673 ] } },
{ "type": "Feature", "properties": { "OBJECTID": 225948, "Objecttype": "VELOSTATION", "Type_velo": "ENKELZIJDIG", "Ligging": "PARKEERZONE", "Straatnaam": "Betogingstraat (2140)", "Huisnummer": "1", "Aanvulling": "to 1", "District": "BORGERHOUT", "Postcode": "2140", "Objectcode": "VE_0000039", "Gebruik": "IN_GEBRUIK", "Aantal_plaatsen": 36 }, "geometry": { "type": "Point", "coordinates": [ 4.434077650751143, 51.210967224688076 ] } },
{ "type": "Feature", "properties": { "OBJECTID": 225949, "Objecttype": "VELOSTATION", "Type_velo": "DUBBELZIJDIG", "Ligging": "PLEIN", "Straatnaam": "Krugerplein (2140)", "Huisnummer": null, "Aanvulling": "thv delarayestraat                 ", "District": "BORGERHOUT", "Postcode": "2140", "Objectcode": "VE_0000108", "Gebruik": "IN_GEBRUIK", "Aantal_plaatsen": 24 }, "geometry": { "type": "Point", "coordinates": [ 4.440109172077478, 51.216009668138653 ] } },
{ "type": "Feature", "properties": { "OBJECTID": 225950, "Objecttype": "VELOSTATION", "Type_velo": "ENKELZIJDIG", "Ligging": "VOETPAD", "Straatnaam": "De Keyserlei (2018)", "Huisnummer": "57", "Aanvulling": null, "District": "ANTWERPEN", "Postcode": "2018", "Objectcode": "VE_0000004", "Gebruik": "IN_GEBRUIK", "Aantal_plaatsen": 21 }, "geometry": { "type": "Point", "coordinates": [ 4.420016082042585, 51.217381736012086 ] } },
{ "type": "Feature", "properties": { "OBJECTID": 225951, "Objecttype": "VELOSTATION", "Type_velo": "ENKELZIJDIG", "Ligging": "PARKEERZONE", "Straatnaam": "Keizerstraat (2000)", "Huisnummer": "56-58", "Aanvulling": "to 56-58", "District": "ANTWERPEN", "Postcode": "2000", "Objectcode": "VE_0000028", "Gebruik": "IN_GEBRUIK", "Aantal_plaatsen": 24 }, "geometry": { "type": "Point", "coordinates": [ 4.408718889689093, 51.221498612149169 ] } },
{ "type": "Feature", "properties": { "OBJECTID": 225952, "Objecttype": "VELOSTATION", "Type_velo": "ENKELZIJDIG", "Ligging": "VOETPAD", "Straatnaam": "Lamorinièrestraat (2018)", "Huisnummer": "148", "Aanvulling": null, "District": "ANTWERPEN", "Postcode": "2018", "Objectcode": "VE_0000130", "Gebruik": "IN_GEBRUIK", "Aantal_plaatsen": 18 }, "geometry": { "type": "Point", "coordinates": [ 4.420780604433253, 51.203831865298426 ] } },
{ "type": "Feature", "properties": { "OBJECTID": 225953, "Objecttype": "VELOSTATION", "Type_velo": "ENKELZIJDIG", "Ligging": "VOETPAD", "Straatnaam": "Sint-Vincentiusstraat (2018)", "Huisnummer": "61", "Aanvulling": "to 61", "District": "ANTWERPEN", "Postcode": "2018", "Objectcode": "VE_0000093", "Gebruik": "IN_GEBRUIK", "Aantal_plaatsen": 30 }, "geometry": { "type": "Point", "coordinates": [ 4.413469231656457, 51.205266098209563 ] } },
{ "type": "Feature", "properties": { "OBJECTID": 225954, "Objecttype": "VELOSTATION", "Type_velo": "ENKELZIJDIG", "Ligging": "PARKEERZONE", "Straatnaam": "Van Schoonbekestraat (2018)", "Huisnummer": null, "Aanvulling": "thv markgravelei", "District": "ANTWERPEN", "Postcode": "2018", "Objectcode": "VE_0000089", "Gebruik": "IN_GEBRUIK", "Aantal_plaatsen": 21 }, "geometry": { "type": "Point", "coordinates": [ 4.402117106489185, 51.198403898807648 ] } },
{ "type": "Feature", "properties": { "OBJECTID": 225955, "Objecttype": "VELOSTATION", "Type_velo": "ENKELZIJDIG", "Ligging": "VOETPAD", "Straatnaam": "Boudewijnsstraat (2018)", "Huisnummer": "19-21", "Aanvulling": "to 19-21", "District": "ANTWERPEN", "Postcode": "2018", "Objectcode": "VE_0000085", "Gebruik": "IN_GEBRUIK", "Aantal_plaatsen": 24 }, "geometry": { "type": "Point", "coordinates": [ 4.39879385649582, 51.205772036007062 ] } },
{ "type": "Feature", "properties": { "OBJECTID": 225956, "Objecttype": "VELOSTATION", "Type_velo": "ENKELZIJDIG", "Ligging": "PARKEERZONE", "Straatnaam": "Rubenslei (2018)", "Huisnummer": null, "Aanvulling": "thv ingang park", "District": "ANTWERPEN", "Postcode": "2018", "Objectcode": "VE_0000096", "Gebruik": "IN_GEBRUIK", "Aantal_plaatsen": 24 }, "geometry": { "type": "Point", "coordinates": [ 4.413277033832608, 51.213367071251852 ] } },
{ "type": "Feature", "properties": { "OBJECTID": 225957, "Objecttype": "VELOSTATION", "Type_velo": "ENKELZIJDIG", "Ligging": "PARKEERZONE", "Straatnaam": "Plantinkaai (2000)", "Huisnummer": "27", "Aanvulling": "to 27", "District": "ANTWERPEN", "Postcode": "2000", "Objectcode": "VE_0000065", "Gebruik": "IN_GEBRUIK", "Aantal_plaatsen": 30 }, "geometry": { "type": "Point", "coordinates": [ 4.39376142779258, 51.21650827041168 ] } },
{ "type": "Feature", "properties": { "OBJECTID": 225958, "Objecttype": "VELOSTATION", "Type_velo": "ENKELZIJDIG", "Ligging": "PLEIN", "Straatnaam": "Groenplaats (2000)", "Huisnummer": "7", "Aanvulling": null, "District": "ANTWERPEN", "Postcode": "2000", "Objectcode": "VE_0000017", "Gebruik": "IN_GEBRUIK", "Aantal_plaatsen": 18 }, "geometry": { "type": "Point", "coordinates": [ 4.401196920279213, 51.218864194762581 ] } },
{ "type": "Feature", "properties": { "OBJECTID": 225959, "Objecttype": "VELOSTATION", "Type_velo": "ENKELZIJDIG", "Ligging": "PARKEERZONE", "Straatnaam": "Pieter van Hobokenstraat (2000)", "Huisnummer": "19-21", "Aanvulling": null, "District": "ANTWERPEN", "Postcode": "2000", "Objectcode": "VE_0000054", "Gebruik": "IN_GEBRUIK", "Aantal_plaatsen": 21 }, "geometry": { "type": "Point", "coordinates": [ 4.412869202644274, 51.221872904804769 ] } },
{ "type": "Feature", "properties": { "OBJECTID": 225960, "Objecttype": "VELOSTATION", "Type_velo": "ENKELZIJDIG", "Ligging": "VOETPAD", "Straatnaam": "Trapstraat (2060)", "Huisnummer": "10", "Aanvulling": null, "District": "ANTWERPEN", "Postcode": "2060", "Objectcode": "VE_0000118", "Gebruik": "IN_GEBRUIK", "Aantal_plaatsen": 21 }, "geometry": { "type": "Point", "coordinates": [ 4.422344633417626, 51.227251661603546 ] } },
{ "type": "Feature", "properties": { "OBJECTID": 225961, "Objecttype": "VELOSTATION", "Type_velo": "ENKELZIJDIG", "Ligging": "PARKEERZONE", "Straatnaam": "Stuivenbergplein (2060)", "Huisnummer": "36-1", "Aanvulling": "to 36-1", "District": "ANTWERPEN", "Postcode": "2060", "Objectcode": "VE_0000121", "Gebruik": "IN_GEBRUIK", "Aantal_plaatsen": 30 }, "geometry": { "type": "Point", "coordinates": [ 4.430696595954571, 51.227344146796483 ] } },
{ "type": "Feature", "properties": { "OBJECTID": 225962, "Objecttype": "VELOSTATION", "Type_velo": "DUBBELZIJDIG", "Ligging": "GROENZONE", "Straatnaam": "Binnensingel (2600)", "Huisnummer": null, "Aanvulling": "kp Grote Stwg", "District": "BERCHEM", "Postcode": "2600", "Objectcode": "VE_0000103", "Gebruik": "IN_GEBRUIK", "Aantal_plaatsen": 36 }, "geometry": { "type": "Point", "coordinates": [ 4.421479817991004, 51.192606072454439 ] } },
{ "type": "Feature", "properties": { "OBJECTID": 225963, "Objecttype": "VELOSTATION", "Type_velo": "ENKELZIJDIG", "Ligging": "MIDDENBERM", "Straatnaam": "Karel Oomsstraat (2018)", "Huisnummer": "69", "Aanvulling": "to 69 od middenberm thv binnensingel", "District": "ANTWERPEN", "Postcode": "2018", "Objectcode": "VE_0000031", "Gebruik": "IN_GEBRUIK", "Aantal_plaatsen": 36 }, "geometry": { "type": "Point", "coordinates": [ 4.4079793838263, 51.193148733501971 ] } },
{ "type": "Feature", "properties": { "OBJECTID": 225964, "Objecttype": "VELOSTATION", "Type_velo": "ENKELZIJDIG", "Ligging": "PARKEERZONE", "Straatnaam": "De Wittestraat (2600)", "Huisnummer": "101", "Aanvulling": "to 101, thv generaal lemanstraat", "District": "BERCHEM", "Postcode": "2600", "Objectcode": "VE_0000131", "Gebruik": "IN_GEBRUIK", "Aantal_plaatsen": 21 }, "geometry": { "type": "Point", "coordinates": [ 4.412239164137355, 51.193756561318466 ] } },
{ "type": "Feature", "properties": { "OBJECTID": 225965, "Objecttype": "VELOSTATION", "Type_velo": "ENKELZIJDIG", "Ligging": "PLEIN", "Straatnaam": "Frans Van Hombeeckplein (2600)", "Huisnummer": "10", "Aanvulling": "to 10", "District": "BERCHEM", "Postcode": "2600", "Objectcode": "VE_0000100", "Gebruik": "IN_GEBRUIK", "Aantal_plaatsen": 33 }, "geometry": { "type": "Point", "coordinates": [ 4.417558838677263, 51.195125729880672 ] } },
{ "type": "Feature", "properties": { "OBJECTID": 225966, "Objecttype": "VELOSTATION", "Type_velo": "ENKELZIJDIG", "Ligging": "GROENZONE", "Straatnaam": "Generaal Lemanstraat (2018)", "Huisnummer": "6", "Aanvulling": "to 6 thv karel oomsstraat", "District": "ANTWERPEN", "Postcode": "2018", "Objectcode": "VE_0000099", "Gebruik": "IN_GEBRUIK", "Aantal_plaatsen": 24 }, "geometry": { "type": "Point", "coordinates": [ 4.410297744005983, 51.197098100070328 ] } },
{ "type": "Feature", "properties": { "OBJECTID": 225967, "Objecttype": "VELOSTATION", "Type_velo": "DUBBELZIJDIG", "Ligging": "GROENZONE", "Straatnaam": "Desguinlei (2018)", "Huisnummer": null, "Aanvulling": "Kielsbroek thv Montignystraat", "District": "ANTWERPEN", "Postcode": "2018", "Objectcode": "VE_0000010", "Gebruik": "IN_GEBRUIK", "Aantal_plaatsen": 36 }, "geometry": { "type": "Point", "coordinates": [ 4.390714172957722, 51.198480209952969 ] } },
{ "type": "Feature", "properties": { "OBJECTID": 225968, "Objecttype": "VELOSTATION", "Type_velo": "ENKELZIJDIG", "Ligging": "PARKEERZONE", "Straatnaam": "Boomgaardstraat (2018)", "Huisnummer": "31", "Aanvulling": null, "District": "ANTWERPEN", "Postcode": "2018", "Objectcode": "VE_0000098", "Gebruik": "BUITEN_GEBRUIK", "Aantal_plaatsen": 21 }, "geometry": { "type": "Point", "coordinates": [ 4.41878996120191, 51.199875393938768 ] } },
{ "type": "Feature", "properties": { "OBJECTID": 225969, "Objecttype": "VELOSTATION", "Type_velo": "ENKELZIJDIG", "Ligging": "VOETPAD", "Straatnaam": "Lange Elzenstraat (2018)", "Huisnummer": "56", "Aanvulling": null, "District": "ANTWERPEN", "Postcode": "2018", "Objectcode": "VE_0000087", "Gebruik": "IN_GEBRUIK", "Aantal_plaatsen": 21 }, "geometry": { "type": "Point", "coordinates": [ 4.394210609438575, 51.200793322776732 ] } },
{ "type": "Feature", "properties": { "OBJECTID": 225970, "Objecttype": "VELOSTATION", "Type_velo": "ENKELZIJDIG", "Ligging": "PLEIN", "Straatnaam": "Burgemeester E. Ryckaertsplein (2600)", "Huisnummer": null, "Aanvulling": "NMBS station Berchem", "District": "BERCHEM", "Postcode": "2600", "Objectcode": "VE_0000007", "Gebruik": "IN_GEBRUIK", "Aantal_plaatsen": 36 }, "geometry": { "type": "Point", "coordinates": [ 4.434009709357634, 51.200974547387929 ] } },
{ "type": "Feature", "properties": { "OBJECTID": 225971, "Objecttype": "VELOSTATION", "Type_velo": "DUBBELZIJDIG", "Ligging": "RIJWEG", "Straatnaam": "Vandenpeereboomstraat (2140)", "Huisnummer": "106", "Aanvulling": null, "District": "BORGERHOUT", "Postcode": "2140", "Objectcode": "VE_0000009", "Gebruik": "IN_GEBRUIK", "Aantal_plaatsen": 30 }, "geometry": { "type": "Point", "coordinates": [ 4.436055751475154, 51.209090225677279 ] } },
{ "type": "Feature", "properties": { "OBJECTID": 225972, "Objecttype": "VELOSTATION", "Type_velo": "ENKELZIJDIG", "Ligging": "PARKEERZONE", "Straatnaam": "Van Trierstraat (2018)", "Huisnummer": "2", "Aanvulling": "to 2 thv haantjeslei", "District": "ANTWERPEN", "Postcode": "2018", "Objectcode": "VE_0000088", "Gebruik": "IN_GEBRUIK", "Aantal_plaatsen": 21 }, "geometry": { "type": "Point", "coordinates": [ 4.402191651358649, 51.201166827721593 ] } },
{ "type": "Feature", "properties": { "OBJECTID": 225973, "Objecttype": "VELOSTATION", "Type_velo": "ENKELZIJDIG", "Ligging": "VOETPAD", "Straatnaam": "Lange Lozanastraat (2018)", "Huisnummer": null, "Aanvulling": null, "District": "ANTWERPEN", "Postcode": "2018", "Objectcode": "VE_0000029", "Gebruik": "IN_GEBRUIK", "Aantal_plaatsen": 18 }, "geometry": { "type": "Point", "coordinates": [ 4.406050111060153, 51.201811015206992 ] } },
{ "type": "Feature", "properties": { "OBJECTID": 225974, "Objecttype": "VELOSTATION", "Type_velo": "ENKELZIJDIG", "Ligging": "PARKEERZONE", "Straatnaam": "Mechelsesteenweg (2018)", "Huisnummer": null, "Aanvulling": "thv ingang harmoniepark", "District": "ANTWERPEN", "Postcode": "2018", "Objectcode": "VE_0000042", "Gebruik": "IN_GEBRUIK", "Aantal_plaatsen": 21 }, "geometry": { "type": "Point", "coordinates": [ 4.412075667819037, 51.202274119462892 ] } },
{ "type": "Feature", "properties": { "OBJECTID": 225975, "Objecttype": "VELOSTATION", "Type_velo": "ENKELZIJDIG", "Ligging": "GROENZONE", "Straatnaam": "Stanleystraat (2018)", "Huisnummer": "1", "Aanvulling": "to 1 thv lange leemstraat", "District": "ANTWERPEN", "Postcode": "2018", "Objectcode": "VE_0000097", "Gebruik": "IN_GEBRUIK", "Aantal_plaatsen": 21 }, "geometry": { "type": "Point", "coordinates": [ 4.42850626669774, 51.203176886105283 ] } },
{ "type": "Feature", "properties": { "OBJECTID": 225976, "Objecttype": "VELOSTATION", "Type_velo": "ENKELZIJDIG", "Ligging": "VOETPAD", "Straatnaam": "Troonplaats (2018)", "Huisnummer": null, "Aanvulling": "thv montignystraat", "District": "ANTWERPEN", "Postcode": "2018", "Objectcode": "VE_0000086", "Gebruik": "IN_GEBRUIK", "Aantal_plaatsen": 27 }, "geometry": { "type": "Point", "coordinates": [ 4.392218039513275, 51.203415034882376 ] } },
{ "type": "Feature", "properties": { "OBJECTID": 225977, "Objecttype": "VELOSTATION", "Type_velo": "ENKELZIJDIG", "Ligging": "VOETPAD", "Straatnaam": "Mechelsesteenweg (2018)", "Huisnummer": "180", "Aanvulling": null, "District": "ANTWERPEN", "Postcode": "2018", "Objectcode": "VE_0000092", "Gebruik": "IN_GEBRUIK", "Aantal_plaatsen": 21 }, "geometry": { "type": "Point", "coordinates": [ 4.410600090915908, 51.204557987357873 ] } },
{ "type": "Feature", "properties": { "OBJECTID": 225978, "Objecttype": "VELOSTATION", "Type_velo": "ENKELZIJDIG", "Ligging": "VOETPAD", "Straatnaam": "Vinkenstraat (2018)", "Huisnummer": "7", "Aanvulling": "to 7", "District": "ANTWERPEN", "Postcode": "2018", "Objectcode": "VE_0000090", "Gebruik": "IN_GEBRUIK", "Aantal_plaatsen": 18 }, "geometry": { "type": "Point", "coordinates": [ 4.404772477084158, 51.204576502371786 ] } },
{ "type": "Feature", "properties": { "OBJECTID": 225979, "Objecttype": "VELOSTATION", "Type_velo": "ENKELZIJDIG", "Ligging": "PLEIN", "Straatnaam": "Bolivarplaats (2000)", "Huisnummer": null, "Aanvulling": "thv gerechtsgebouw", "District": "ANTWERPEN", "Postcode": "2000", "Objectcode": "VE_0000081", "Gebruik": "IN_GEBRUIK", "Aantal_plaatsen": 27 }, "geometry": { "type": "Point", "coordinates": [ 4.387650748262567, 51.204675081429009 ] } },
{ "type": "Feature", "properties": { "OBJECTID": 225980, "Objecttype": "VELOSTATION", "Type_velo": "ENKELZIJDIG", "Ligging": "VOETPAD", "Straatnaam": "Draakplaats (2018)", "Huisnummer": null, "Aanvulling": null, "District": "BERCHEM", "Postcode": "2600", "Objectcode": "VE_0000106", "Gebruik": "IN_GEBRUIK", "Aantal_plaatsen": 33 }, "geometry": { "type": "Point", "coordinates": [ 4.432177350795297, 51.205656115380087 ] } },
{ "type": "Feature", "properties": { "OBJECTID": 225981, "Objecttype": "VELOSTATION", "Type_velo": "ENKELZIJDIG", "Ligging": "VOETPAD", "Straatnaam": "Amerikalei (2000)", "Huisnummer": "82", "Aanvulling": null, "District": "ANTWERPEN", "Postcode": "2000", "Objectcode": "VE_0000083", "Gebruik": "IN_GEBRUIK", "Aantal_plaatsen": 27 }, "geometry": { "type": "Point", "coordinates": [ 4.398460113970215, 51.207737978773459 ] } },
{ "type": "Feature", "properties": { "OBJECTID": 225982, "Objecttype": "VELOSTATION", "Type_velo": "ENKELZIJDIG", "Ligging": "VOETPAD", "Straatnaam": "Beeldhouwersstraat (2000)", "Huisnummer": null, "Aanvulling": "thv Admiraal De Boisotstraat", "District": "ANTWERPEN", "Postcode": "2000", "Objectcode": "VE_0000015", "Gebruik": "BUITEN_GEBRUIK", "Aantal_plaatsen": 24 }, "geometry": { "type": "Point", "coordinates": [ 4.394452907135388, 51.20785249054466 ] } },
{ "type": "Feature", "properties": { "OBJECTID": 225983, "Objecttype": "VELOSTATION", "Type_velo": "ENKELZIJDIG", "Ligging": "PARKEERZONE", "Straatnaam": "Provinciestraat (2018)", "Huisnummer": null, "Aanvulling": "thv mercatorstraat", "District": "ANTWERPEN", "Postcode": "2018", "Objectcode": "VE_0000104", "Gebruik": "IN_GEBRUIK", "Aantal_plaatsen": 18 }, "geometry": { "type": "Point", "coordinates": [ 4.424229403600571, 51.208108599282887 ] } },
{ "type": "Feature", "properties": { "OBJECTID": 225984, "Objecttype": "VELOSTATION", "Type_velo": "DUBBELZIJDIG", "Ligging": "VOETPAD", "Straatnaam": "Waalsekaai (2000)", "Huisnummer": "46", "Aanvulling": "thv Fotografie museum", "District": "ANTWERPEN", "Postcode": "2000", "Objectcode": "VE_0000082", "Gebruik": "IN_GEBRUIK", "Aantal_plaatsen": 24 }, "geometry": { "type": "Point", "coordinates": [ 4.387290895021348, 51.208524877144121 ] } },
{ "type": "Feature", "properties": { "OBJECTID": 225985, "Objecttype": "VELOSTATION", "Type_velo": "ENKELZIJDIG", "Ligging": "VOETPAD", "Straatnaam": "Mechelsesteenweg (2018)", "Huisnummer": "66", "Aanvulling": null, "District": "ANTWERPEN", "Postcode": "2018", "Objectcode": "VE_0000091", "Gebruik": "IN_GEBRUIK", "Aantal_plaatsen": 18 }, "geometry": { "type": "Point", "coordinates": [ 4.408317267371118, 51.208789138357247 ] } },
{ "type": "Feature", "properties": { "OBJECTID": 225986, "Objecttype": "VELOSTATION", "Type_velo": "ENKELZIJDIG", "Ligging": "VOETPAD", "Straatnaam": "Lange Van Ruusbroecstraat (2018)", "Huisnummer": "114", "Aanvulling": null, "District": "ANTWERPEN", "Postcode": "2018", "Objectcode": "VE_0000105", "Gebruik": "IN_GEBRUIK", "Aantal_plaatsen": 33 }, "geometry": { "type": "Point", "coordinates": [ 4.431455545983068, 51.208972268146475 ] } },
{ "type": "Feature", "properties": { "OBJECTID": 225987, "Objecttype": "VELOSTATION", "Type_velo": "ENKELZIJDIG", "Ligging": "VOETPAD", "Straatnaam": "Britselei (2000)", "Huisnummer": "86-94", "Aanvulling": null, "District": "ANTWERPEN", "Postcode": "2000", "Objectcode": "VE_0000078", "Gebruik": "IN_GEBRUIK", "Aantal_plaatsen": 27 }, "geometry": { "type": "Point", "coordinates": [ 4.40293284757141, 51.209189711953904 ] } },
{ "type": "Feature", "properties": { "OBJECTID": 225988, "Objecttype": "VELOSTATION", "Type_velo": "ENKELZIJDIG", "Ligging": "PARKEERZONE", "Straatnaam": "Vlaamsekaai (2000)", "Huisnummer": "35", "Aanvulling": null, "District": "ANTWERPEN", "Postcode": "2000", "Objectcode": "VE_0000075", "Gebruik": "BUITEN_GEBRUIK", "Aantal_plaatsen": 24 }, "geometry": { "type": "Point", "coordinates": [ 4.390886846922112, 51.209826674052543 ] } },
{ "type": "Feature", "properties": { "OBJECTID": 225989, "Objecttype": "VELOSTATION", "Type_velo": "ENKELZIJDIG", "Ligging": "MIDDENBERM", "Straatnaam": "Van Eycklei (2018)", "Huisnummer": "48", "Aanvulling": "to 48", "District": "ANTWERPEN", "Postcode": "2018", "Objectcode": "VE_0000116", "Gebruik": "IN_GEBRUIK", "Aantal_plaatsen": 18 }, "geometry": { "type": "Point", "coordinates": [ 4.417370316943072, 51.210050382135123 ] } },
{ "type": "Feature", "properties": { "OBJECTID": 225990, "Objecttype": "VELOSTATION", "Type_velo": "DUBBELZIJDIG", "Ligging": "VOETGANGERSZONE", "Straatnaam": "Waalsekaai (2000)", "Huisnummer": "53", "Aanvulling": null, "District": "ANTWERPEN", "Postcode": "2000", "Objectcode": "VE_0000034", "Gebruik": "BUITEN_GEBRUIK", "Aantal_plaatsen": 36 }, "geometry": { "type": "Point", "coordinates": [ 4.388808373597174, 51.209202312086198 ] } },
{ "type": "Feature", "properties": { "OBJECTID": 225991, "Objecttype": "VELOSTATION", "Type_velo": "ENKELZIJDIG", "Ligging": "VOETPAD", "Straatnaam": "Britselei (2000)", "Huisnummer": "4", "Aanvulling": "thv mechelsesteenweg", "District": "ANTWERPEN", "Postcode": "2000", "Objectcode": "VE_0000079", "Gebruik": "IN_GEBRUIK", "Aantal_plaatsen": 24 }, "geometry": { "type": "Point", "coordinates": [ 4.407276684243762, 51.211057439719177 ] } },
{ "type": "Feature", "properties": { "OBJECTID": 225992, "Objecttype": "VELOSTATION", "Type_velo": "ENKELZIJDIG", "Ligging": "PLEIN", "Straatnaam": "Maarschalk Montgomeryplein (2140)", "Huisnummer": "4", "Aanvulling": "to 4 oh plein", "District": "BORGERHOUT", "Postcode": "2140", "Objectcode": "VE_0000132", "Gebruik": "IN_GEBRUIK", "Aantal_plaatsen": 18 }, "geometry": { "type": "Point", "coordinates": [ 4.437785264165385, 51.211728040540919 ] } },
{ "type": "Feature", "properties": { "OBJECTID": 225993, "Objecttype": "VELOSTATION", "Type_velo": "ENKELZIJDIG", "Ligging": "PARKEERZONE", "Straatnaam": "Kronenburgstraat (2000)", "Huisnummer": "82", "Aanvulling": "to 82", "District": "ANTWERPEN", "Postcode": "2000", "Objectcode": "VE_0000072", "Gebruik": "IN_GEBRUIK", "Aantal_plaatsen": 27 }, "geometry": { "type": "Point", "coordinates": [ 4.398901754040272, 51.2118877091279 ] } },
{ "type": "Feature", "properties": { "OBJECTID": 225994, "Objecttype": "VELOSTATION", "Type_velo": "ENKELZIJDIG", "Ligging": "VOETPAD", "Straatnaam": "Kloosterstraat (2000)", "Huisnummer": "164", "Aanvulling": "to 164 thv kronenburgstraat", "District": "ANTWERPEN", "Postcode": "2000", "Objectcode": "VE_0000074", "Gebruik": "IN_GEBRUIK", "Aantal_plaatsen": 30 }, "geometry": { "type": "Point", "coordinates": [ 4.394016249334145, 51.21228730073512 ] } },
{ "type": "Feature", "properties": { "OBJECTID": 225995, "Objecttype": "VELOSTATION", "Type_velo": "DUBBELZIJDIG", "Ligging": "PLEIN", "Straatnaam": "Kievitplein (2018)", "Huisnummer": null, "Aanvulling": null, "District": "ANTWERPEN", "Postcode": "2018", "Objectcode": "VE_0000005", "Gebruik": "IN_GEBRUIK", "Aantal_plaatsen": 36 }, "geometry": { "type": "Point", "coordinates": [ 4.421609796644196, 51.21300161157307 ] } },
{ "type": "Feature", "properties": { "OBJECTID": 225996, "Objecttype": "VELOSTATION", "Type_velo": "ENKELZIJDIG", "Ligging": "MIDDENBERM", "Straatnaam": "Lange Gasthuisstraat (2000)", "Huisnummer": "3", "Aanvulling": "to 3", "District": "ANTWERPEN", "Postcode": "2000", "Objectcode": "VE_0000084", "Gebruik": "IN_GEBRUIK", "Aantal_plaatsen": 24 }, "geometry": { "type": "Point", "coordinates": [ 4.404964477402114, 51.213461741898655 ] } },
{ "type": "Feature", "properties": { "OBJECTID": 225997, "Objecttype": "VELOSTATION", "Type_velo": "DUBBELZIJDIG", "Ligging": "PLEIN", "Straatnaam": "Moorkensplein (2140)", "Huisnummer": null, "Aanvulling": null, "District": "BORGERHOUT", "Postcode": "2140", "Objectcode": "VE_0000107", "Gebruik": "IN_GEBRUIK", "Aantal_plaatsen": 36 }, "geometry": { "type": "Point", "coordinates": [ 4.433898485140165, 51.213363545799005 ] } },
{ "type": "Feature", "properties": { "OBJECTID": 225998, "Objecttype": "VELOSTATION", "Type_velo": "ENKELZIJDIG", "Ligging": "PARKEERZONE", "Straatnaam": "Tabakvest (2000)", "Huisnummer": "42", "Aanvulling": null, "District": "ANTWERPEN", "Postcode": "2000", "Objectcode": "VE_0000037", "Gebruik": "IN_GEBRUIK", "Aantal_plaatsen": 30 }, "geometry": { "type": "Point", "coordinates": [ 4.412070273330924, 51.215333008974262 ] } },
{ "type": "Feature", "properties": { "OBJECTID": 225999, "Objecttype": "VELOSTATION", "Type_velo": "ENKELZIJDIG", "Ligging": "PARKEERZONE", "Straatnaam": "Quinten Matsijslei (2018)", "Huisnummer": "12", "Aanvulling": null, "District": "ANTWERPEN", "Postcode": "2018", "Objectcode": "VE_0000095", "Gebruik": "IN_GEBRUIK", "Aantal_plaatsen": 30 }, "geometry": { "type": "Point", "coordinates": [ 4.416202999278023, 51.214156061211874 ] } },
{ "type": "Feature", "properties": { "OBJECTID": 226000, "Objecttype": "VELOSTATION", "Type_velo": "ENKELZIJDIG", "Ligging": "PARKEERZONE", "Straatnaam": "Sint-Andriesplaats (2000)", "Huisnummer": "23", "Aanvulling": "to 23 oh plein", "District": "ANTWERPEN", "Postcode": "2000", "Objectcode": "VE_0000070", "Gebruik": "IN_GEBRUIK", "Aantal_plaatsen": 30 }, "geometry": { "type": "Point", "coordinates": [ 4.396330177998357, 51.214841897971816 ] } },
{ "type": "Feature", "properties": { "OBJECTID": 226001, "Objecttype": "VELOSTATION", "Type_velo": "ENKELZIJDIG", "Ligging": "PARKEERZONE", "Straatnaam": "Sint-Michielskaai (2000)", "Huisnummer": "21", "Aanvulling": "to 21", "District": "ANTWERPEN", "Postcode": "2000", "Objectcode": "VE_0000071", "Gebruik": "IN_GEBRUIK", "Aantal_plaatsen": 30 }, "geometry": { "type": "Point", "coordinates": [ 4.392508979825814, 51.214833628570318 ] } },
{ "type": "Feature", "properties": { "OBJECTID": 226002, "Objecttype": "VELOSTATION", "Type_velo": "ENKELZIJDIG", "Ligging": "PARKEERZONE", "Straatnaam": "Oudaan (2000)", "Huisnummer": "14", "Aanvulling": null, "District": "ANTWERPEN", "Postcode": "2000", "Objectcode": "VE_0000067", "Gebruik": "IN_GEBRUIK", "Aantal_plaatsen": 36 }, "geometry": { "type": "Point", "coordinates": [ 4.403069133799074, 51.2157712411923 ] } },
{ "type": "Feature", "properties": { "OBJECTID": 226003, "Objecttype": "VELOSTATION", "Type_velo": "ENKELZIJDIG", "Ligging": "PARKEERZONE", "Straatnaam": "Schuttershofstraat (2000)", "Huisnummer": "2", "Aanvulling": null, "District": "ANTWERPEN", "Postcode": "2000", "Objectcode": "VE_0000036", "Gebruik": "IN_GEBRUIK", "Aantal_plaatsen": 21 }, "geometry": { "type": "Point", "coordinates": [ 4.406016688690744, 51.216423681609697 ] } },
{ "type": "Feature", "properties": { "OBJECTID": 226004, "Objecttype": "VELOSTATION", "Type_velo": "ENKELZIJDIG", "Ligging": "VOETPAD", "Straatnaam": "Wapper (2000)", "Huisnummer": null, "Aanvulling": "thv Jodenstraat", "District": "ANTWERPEN", "Postcode": "2000", "Objectcode": "VE_0000023", "Gebruik": "IN_GEBRUIK", "Aantal_plaatsen": 36 }, "geometry": { "type": "Point", "coordinates": [ 4.40888110931076, 51.217083737949309 ] } },
{ "type": "Feature", "properties": { "OBJECTID": 226005, "Objecttype": "VELOSTATION", "Type_velo": "ENKELZIJDIG", "Ligging": "PARKEERZONE", "Straatnaam": "Drukkerijstraat (2000)", "Huisnummer": "18", "Aanvulling": null, "District": "ANTWERPEN", "Postcode": "2000", "Objectcode": "VE_0000066", "Gebruik": "IN_GEBRUIK", "Aantal_plaatsen": 24 }, "geometry": { "type": "Point", "coordinates": [ 4.399241480869104, 51.217128499092013 ] } },
{ "type": "Feature", "properties": { "OBJECTID": 226006, "Objecttype": "VELOSTATION", "Type_velo": "ENKELZIJDIG", "Ligging": "PLEIN", "Straatnaam": "Koningin Astridplein (2018)", "Huisnummer": "31-32", "Aanvulling": null, "District": "ANTWERPEN", "Postcode": "2018", "Objectcode": "VE_0000001", "Gebruik": "IN_GEBRUIK", "Aantal_plaatsen": 33 }, "geometry": { "type": "Point", "coordinates": [ 4.420633795082129, 51.217681120024338 ] } },
{ "type": "Feature", "properties": { "OBJECTID": 226007, "Objecttype": "VELOSTATION", "Type_velo": "ENKELZIJDIG", "Ligging": "VOETPAD", "Straatnaam": "Meir (2000)", "Huisnummer": "18", "Aanvulling": null, "District": "ANTWERPEN", "Postcode": "2000", "Objectcode": "VE_0000018", "Gebruik": "IN_GEBRUIK", "Aantal_plaatsen": 36 }, "geometry": { "type": "Point", "coordinates": [ 4.406168536101777, 51.218186580687608 ] } },
{ "type": "Feature", "properties": { "OBJECTID": 226008, "Objecttype": "VELOSTATION", "Type_velo": "DUBBELZIJDIG", "Ligging": "VOETPAD", "Straatnaam": "Leysstraat (2000)", "Huisnummer": " 27", "Aanvulling": null, "District": "ANTWERPEN", "Postcode": "2000", "Objectcode": "VE_0000025", "Gebruik": "IN_GEBRUIK", "Aantal_plaatsen": 36 }, "geometry": { "type": "Point", "coordinates": [ 4.414085798069481, 51.218256297291411 ] } },
{ "type": "Feature", "properties": { "OBJECTID": 226009, "Objecttype": "VELOSTATION", "Type_velo": "ENKELZIJDIG", "Ligging": "VOETPAD", "Straatnaam": "Kerkstraat (2060)", "Huisnummer": "58", "Aanvulling": null, "District": "ANTWERPEN", "Postcode": "2060", "Objectcode": "VE_0000109", "Gebruik": "IN_GEBRUIK", "Aantal_plaatsen": 21 }, "geometry": { "type": "Point", "coordinates": [ 4.430555980277485, 51.218602671823284 ] } },
{ "type": "Feature", "properties": { "OBJECTID": 226010, "Objecttype": "VELOSTATION", "Type_velo": "ENKELZIJDIG", "Ligging": "VOETPAD", "Straatnaam": "Vercammenstraat (2140)", "Huisnummer": "3", "Aanvulling": "thv helmstraat", "District": "BORGERHOUT", "Postcode": "2140", "Objectcode": "VE_0000113", "Gebruik": "IN_GEBRUIK", "Aantal_plaatsen": 18 }, "geometry": { "type": "Point", "coordinates": [ 4.43863505069876, 51.218636439199187 ] } },
{ "type": "Feature", "properties": { "OBJECTID": 226011, "Objecttype": "VELOSTATION", "Type_velo": "DUBBELZIJDIG", "Ligging": "PLEIN", "Straatnaam": "Plantinkaai (2000)", "Huisnummer": null, "Aanvulling": "to st-jansvliet zuiderterras", "District": "ANTWERPEN", "Postcode": "2000", "Objectcode": "VE_0000064", "Gebruik": "IN_GEBRUIK", "Aantal_plaatsen": 36 }, "geometry": { "type": "Point", "coordinates": [ 4.394899778880339, 51.219091719786142 ] } },
{ "type": "Feature", "properties": { "OBJECTID": 226012, "Objecttype": "VELOSTATION", "Type_velo": "ENKELZIJDIG", "Ligging": "PLEIN", "Straatnaam": "Osystraat (2060)", "Huisnummer": null, "Aanvulling": "verplaatst van Italielei naar  Osystraat", "District": "ANTWERPEN", "Postcode": "2000", "Objectcode": "VE_0000011", "Gebruik": "IN_GEBRUIK", "Aantal_plaatsen": 36 }, "geometry": { "type": "Point", "coordinates": [ 4.41834121220928, 51.222080368387878 ] } },
{ "type": "Feature", "properties": { "OBJECTID": 226013, "Objecttype": "VELOSTATION", "Type_velo": "ENKELZIJDIG", "Ligging": "GROENZONE", "Straatnaam": "Ernest Van Dijckkaai (2000)", "Huisnummer": "11-12", "Aanvulling": "to 11-12 zuiderterras", "District": "ANTWERPEN", "Postcode": "2000", "Objectcode": "VE_0000059", "Gebruik": "IN_GEBRUIK", "Aantal_plaatsen": 36 }, "geometry": { "type": "Point", "coordinates": [ 4.396754215056191, 51.221074453805223 ] } },
{ "type": "Feature", "properties": { "OBJECTID": 226014, "Objecttype": "VELOSTATION", "Type_velo": "ENKELZIJDIG", "Ligging": "VOETPAD", "Straatnaam": "Wolstraat (2000)", "Huisnummer": "2", "Aanvulling": "thv korte koepoortstraat", "District": "ANTWERPEN", "Postcode": "2000", "Objectcode": "VE_0000057", "Gebruik": "IN_GEBRUIK", "Aantal_plaatsen": 18 }, "geometry": { "type": "Point", "coordinates": [ 4.402678357704985, 51.2215903802566 ] } },
{ "type": "Feature", "properties": { "OBJECTID": 226015, "Objecttype": "VELOSTATION", "Type_velo": "ENKELZIJDIG", "Ligging": "PLEIN", "Straatnaam": "De Coninckplein (2060)", "Huisnummer": "26", "Aanvulling": "to 26", "District": "ANTWERPEN", "Postcode": "2060", "Objectcode": "VE_0000032", "Gebruik": "IN_GEBRUIK", "Aantal_plaatsen": 27 }, "geometry": { "type": "Point", "coordinates": [ 4.420762239984564, 51.221693406738041 ] } },
{ "type": "Feature", "properties": { "OBJECTID": 226016, "Objecttype": "VELOSTATION", "Type_velo": "ENKELZIJDIG", "Ligging": "PARKEERZONE", "Straatnaam": "Pesthofstraat (2060)", "Huisnummer": "7", "Aanvulling": "to 7", "District": "ANTWERPEN", "Postcode": "2060", "Objectcode": "VE_0000114", "Gebruik": "IN_GEBRUIK", "Aantal_plaatsen": 21 }, "geometry": { "type": "Point", "coordinates": [ 4.433770997855821, 51.222063926784564 ] } },
{ "type": "Feature", "properties": { "OBJECTID": 226017, "Objecttype": "VELOSTATION", "Type_velo": "ENKELZIJDIG", "Ligging": "PARKEERZONE", "Straatnaam": "Minderbroedersrui (2000)", "Huisnummer": "46", "Aanvulling": null, "District": "ANTWERPEN", "Postcode": "2000", "Objectcode": "VE_0000056", "Gebruik": "IN_GEBRUIK", "Aantal_plaatsen": 30 }, "geometry": { "type": "Point", "coordinates": [ 4.404573522274011, 51.222198216802227 ] } },
{ "type": "Feature", "properties": { "OBJECTID": 226018, "Objecttype": "VELOSTATION", "Type_velo": "ENKELZIJDIG", "Ligging": "VOETPAD", "Straatnaam": "Sint-Elisabethstraat (2060)", "Huisnummer": "63", "Aanvulling": "thv greinstraat", "District": "ANTWERPEN", "Postcode": "2060", "Objectcode": "VE_0000115", "Gebruik": "IN_GEBRUIK", "Aantal_plaatsen": 21 }, "geometry": { "type": "Point", "coordinates": [ 4.424304551424431, 51.222786036814057 ] } },
{ "type": "Feature", "properties": { "OBJECTID": 226019, "Objecttype": "VELOSTATION", "Type_velo": "ENKELZIJDIG", "Ligging": "PARKEERZONE", "Straatnaam": "Jordaenskaai (2000)", "Huisnummer": null, "Aanvulling": "to saucierstraat", "District": "ANTWERPEN", "Postcode": "2000", "Objectcode": "VE_0000058", "Gebruik": "IN_GEBRUIK", "Aantal_plaatsen": 30 }, "geometry": { "type": "Point", "coordinates": [ 4.399077054734239, 51.224349506389657 ] } },
{ "type": "Feature", "properties": { "OBJECTID": 226020, "Objecttype": "VELOSTATION", "Type_velo": "ENKELZIJDIG", "Ligging": "PARKEERZONE", "Straatnaam": "Paardenmarkt (2000)", "Huisnummer": "90", "Aanvulling": "thv kleine kauwenberg", "District": "ANTWERPEN", "Postcode": "2000", "Objectcode": "VE_0000053", "Gebruik": "IN_GEBRUIK", "Aantal_plaatsen": 21 }, "geometry": { "type": "Point", "coordinates": [ 4.412879068625047, 51.224762759384873 ] } },
{ "type": "Feature", "properties": { "OBJECTID": 226021, "Objecttype": "VELOSTATION", "Type_velo": "ENKELZIJDIG", "Ligging": "VOETPAD", "Straatnaam": "Pothoekstraat (2060)", "Huisnummer": "122", "Aanvulling": "to 122", "District": "ANTWERPEN", "Postcode": "2060", "Objectcode": "VE_0000122", "Gebruik": "IN_GEBRUIK", "Aantal_plaatsen": 21 }, "geometry": { "type": "Point", "coordinates": [ 4.436588478508893, 51.224702426213852 ] } },
{ "type": "Feature", "properties": { "OBJECTID": 226022, "Objecttype": "VELOSTATION", "Type_velo": "ENKELZIJDIG", "Ligging": "PLEIN", "Straatnaam": "Sint-Jansplein (2060)", "Huisnummer": "17", "Aanvulling": "to 17", "District": "ANTWERPEN", "Postcode": "2060", "Objectcode": "VE_0000117", "Gebruik": "IN_GEBRUIK", "Aantal_plaatsen": 30 }, "geometry": { "type": "Point", "coordinates": [ 4.418392826584771, 51.225487432479817 ] } },
{ "type": "Feature", "properties": { "OBJECTID": 226023, "Objecttype": "VELOSTATION", "Type_velo": "DUBBELZIJDIG", "Ligging": "VOETPAD", "Straatnaam": "Entrepotkaai (2000)", "Huisnummer": "15", "Aanvulling": "verplaatst van italielei nr Entrepotkaai", "District": "ANTWERPEN", "Postcode": "2000", "Objectcode": "VE_0000052", "Gebruik": "IN_GEBRUIK", "Aantal_plaatsen": 36 }, "geometry": { "type": "Point", "coordinates": [ 4.411593756271868, 51.228142480388115 ] } },
{ "type": "Feature", "properties": { "OBJECTID": 226024, "Objecttype": "VELOSTATION", "Type_velo": "ENKELZIJDIG", "Ligging": "PARKEERZONE", "Straatnaam": "Sint-Pietersvliet (2000)", "Huisnummer": null, "Aanvulling": "thv tolhuis", "District": "ANTWERPEN", "Postcode": "2000", "Objectcode": "VE_0000049", "Gebruik": "IN_GEBRUIK", "Aantal_plaatsen": 27 }, "geometry": { "type": "Point", "coordinates": [ 4.400851419949555, 51.225851061032763 ] } },
{ "type": "Feature", "properties": { "OBJECTID": 226025, "Objecttype": "VELOSTATION", "Type_velo": "ENKELZIJDIG", "Ligging": "VOETPAD", "Straatnaam": "Hessenplein (2000)", "Huisnummer": "2", "Aanvulling": null, "District": "ANTWERPEN", "Postcode": "2000", "Objectcode": "VE_0000033", "Gebruik": "IN_GEBRUIK", "Aantal_plaatsen": 21 }, "geometry": { "type": "Point", "coordinates": [ 4.409626709982803, 51.226199873904747 ] } },
{ "type": "Feature", "properties": { "OBJECTID": 226026, "Objecttype": "VELOSTATION", "Type_velo": "DUBBELZIJDIG", "Ligging": "VOETPAD", "Straatnaam": "Sint-Aldegondiskaai (2000)", "Huisnummer": "2", "Aanvulling": "thv Bonapartedok", "District": "ANTWERPEN", "Postcode": "2000", "Objectcode": "VE_0000135", "Gebruik": "IN_GEBRUIK", "Aantal_plaatsen": 36 }, "geometry": { "type": "Point", "coordinates": [ 4.402209222510018, 51.227950938734018 ] } },
{ "type": "Feature", "properties": { "OBJECTID": 226027, "Objecttype": "VELOSTATION", "Type_velo": "DUBBELZIJDIG", "Ligging": "VOETPAD", "Straatnaam": "Oudeleeuwenrui (2000)", "Huisnummer": "2", "Aanvulling": null, "District": "ANTWERPEN", "Postcode": "2000", "Objectcode": "VE_0000045", "Gebruik": "IN_GEBRUIK", "Aantal_plaatsen": 36 }, "geometry": { "type": "Point", "coordinates": [ 4.405504015126345, 51.226879323798158 ] } },
{ "type": "Feature", "properties": { "OBJECTID": 226028, "Objecttype": "VELOSTATION", "Type_velo": "DUBBELZIJDIG", "Ligging": "PLEIN", "Straatnaam": "Godefriduskaai (2000)", "Huisnummer": null, "Aanvulling": "thv oostendekaai", "District": "ANTWERPEN", "Postcode": "2000", "Objectcode": "VE_0000134", "Gebruik": "IN_GEBRUIK", "Aantal_plaatsen": 36 }, "geometry": { "type": "Point", "coordinates": [ 4.405719638157337, 51.228127070351562 ] } },
{ "type": "Feature", "properties": { "OBJECTID": 226029, "Objecttype": "VELOSTATION", "Type_velo": "ENKELZIJDIG", "Ligging": "PARKEERZONE", "Straatnaam": "Viséstraat (2060)", "Huisnummer": "14", "Aanvulling": null, "District": "ANTWERPEN", "Postcode": "2060", "Objectcode": "VE_0000123", "Gebruik": "IN_GEBRUIK", "Aantal_plaatsen": 18 }, "geometry": { "type": "Point", "coordinates": [ 4.424730014495805, 51.229101215016485 ] } },
{ "type": "Feature", "properties": { "OBJECTID": 226030, "Objecttype": "VELOSTATION", "Type_velo": "ENKELZIJDIG", "Ligging": "VOETPAD", "Straatnaam": "Entrepotplaats (2000)", "Huisnummer": "1", "Aanvulling": null, "District": "ANTWERPEN", "Postcode": "2000", "Objectcode": "VE_0000133", "Gebruik": "IN_GEBRUIK", "Aantal_plaatsen": 24 }, "geometry": { "type": "Point", "coordinates": [ 4.411376599712485, 51.22948095206597 ] } },
{ "type": "Feature", "properties": { "OBJECTID": 226031, "Objecttype": "VELOSTATION", "Type_velo": "ENKELZIJDIG", "Ligging": "GROENZONE", "Straatnaam": "Ellermanstraat (2060)", "Huisnummer": "74", "Aanvulling": "to 74", "District": "ANTWERPEN", "Postcode": "2060", "Objectcode": "VE_0000124", "Gebruik": "IN_GEBRUIK", "Aantal_plaatsen": 30 }, "geometry": { "type": "Point", "coordinates": [ 4.419418612709864, 51.229924714923982 ] } },
{ "type": "Feature", "properties": { "OBJECTID": 226032, "Objecttype": "VELOSTATION", "Type_velo": "DUBBELZIJDIG", "Ligging": "VOETPAD", "Straatnaam": "Turnhoutsebaan (2140)", "Huisnummer": "366", "Aanvulling": "thv stenenbrug                 ", "District": "BORGERHOUT", "Postcode": "2140", "Objectcode": "VE_0000068", "Gebruik": "IN_GEBRUIK", "Aantal_plaatsen": 30 }, "geometry": { "type": "Point", "coordinates": [ 4.443710164581229, 51.21453008808227 ] } },
{ "type": "Feature", "properties": { "OBJECTID": 226033, "Objecttype": "VELOSTATION", "Type_velo": "DUBBELZIJDIG", "Ligging": "VOETPAD", "Straatnaam": "Lange Lobroekstraat (2060)", "Huisnummer": "220", "Aanvulling": "to", "District": "ANTWERPEN", "Postcode": "2060", "Objectcode": "VE_0000062", "Gebruik": "IN_GEBRUIK", "Aantal_plaatsen": 24 }, "geometry": { "type": "Point", "coordinates": [ 4.42699430853746, 51.231781189927858 ] } },
{ "type": "Feature", "properties": { "OBJECTID": 226034, "Objecttype": "VELOSTATION", "Type_velo": "ENKELZIJDIG", "Ligging": "VOETPAD", "Straatnaam": "Lange Lobroekstraat (2060)", "Huisnummer": "93", "Aanvulling": "to", "District": "ANTWERPEN", "Postcode": "2060", "Objectcode": "VE_0000063", "Gebruik": "IN_GEBRUIK", "Aantal_plaatsen": 36 }, "geometry": { "type": "Point", "coordinates": [ 4.431672861422027, 51.229932573256427 ] } },
{ "type": "Feature", "properties": { "OBJECTID": 226035, "Objecttype": "VELOSTATION", "Type_velo": "ENKELZIJDIG", "Ligging": "VOETPAD", "Straatnaam": "Pastorijstraat (2060)", "Huisnummer": "28", "Aanvulling": "to", "District": "ANTWERPEN", "Postcode": "2060", "Objectcode": "VE_0000038", "Gebruik": "IN_GEBRUIK", "Aantal_plaatsen": 21 }, "geometry": { "type": "Point", "coordinates": [ 4.432655281796165, 51.220103587907886 ] } },
{ "type": "Feature", "properties": { "OBJECTID": 226036, "Objecttype": "VELOSTATION", "Type_velo": "DUBBELZIJDIG", "Ligging": "VOETPAD", "Straatnaam": "Maarschalk Gérardstraat (2000)", "Huisnummer": "25a", "Aanvulling": null, "District": "ANTWERPEN", "Postcode": "2000", "Objectcode": "VE_0000073", "Gebruik": "IN_GEBRUIK", "Aantal_plaatsen": 36 }, "geometry": { "type": "Point", "coordinates": [ 4.403639660134001, 51.21231823198265 ] } },
{ "type": "Feature", "properties": { "OBJECTID": 226037, "Objecttype": "VELOSTATION", "Type_velo": "DUBBELZIJDIG", "Ligging": "GROENZONE", "Straatnaam": "Jan Van Rijswijcklaan (2018)", "Huisnummer": null, "Aanvulling": "thv de Singel", "District": "ANTWERPEN", "Postcode": "2018", "Objectcode": "VE_0000013", "Gebruik": "IN_GEBRUIK", "Aantal_plaatsen": 36 }, "geometry": { "type": "Point", "coordinates": [ 4.402279999447833, 51.193786373040318 ] } },
{ "type": "Feature", "properties": { "OBJECTID": 226038, "Objecttype": "VELOSTATION", "Type_velo": "ENKELZIJDIG", "Ligging": "VOETPAD", "Straatnaam": "De Keyserlei (2018)", "Huisnummer": "61", "Aanvulling": null, "District": "ANTWERPEN", "Postcode": "2018", "Objectcode": "VE_0000048", "Gebruik": "IN_GEBRUIK", "Aantal_plaatsen": 33 }, "geometry": { "type": "Point", "coordinates": [ 4.41997153218503, 51.217335218136284 ] } },
{ "type": "Feature", "properties": { "OBJECTID": 226039, "Objecttype": "VELOSTATION", "Type_velo": "ENKELZIJDIG", "Ligging": "VOETGANGERSZONE", "Straatnaam": "Hardenvoort (2060)", "Huisnummer": null, "Aanvulling": null, "District": "ANTWERPEN", "Postcode": "2060", "Objectcode": "VE_0000136", "Gebruik": "IN_GEBRUIK", "Aantal_plaatsen": 33 }, "geometry": { "type": "Point", "coordinates": [ 4.421091978739403, 51.231745413129779 ] } },
{ "type": "Feature", "properties": { "OBJECTID": 226040, "Objecttype": "VELOSTATION", "Type_velo": "ENKELZIJDIG", "Ligging": "VOETPAD", "Straatnaam": "Terloplein (2140)", "Huisnummer": "64", "Aanvulling": "to 64 pleintje", "District": "BORGERHOUT", "Postcode": "2140", "Objectcode": "VE_0000154", "Gebruik": "IN_GEBRUIK", "Aantal_plaatsen": 33 }, "geometry": { "type": "Point", "coordinates": [ 4.443907703600757, 51.219029751370329 ] } },
{ "type": "Feature", "properties": { "OBJECTID": 226041, "Objecttype": "VELOSTATION", "Type_velo": "DUBBELZIJDIG", "Ligging": "VOETGANGERSZONE", "Straatnaam": "Statielei (2140)", "Huisnummer": "27", "Aanvulling": "to 27 naast spoorwegbrug", "District": "BORGERHOUT", "Postcode": "2140", "Objectcode": "VE_0000155", "Gebruik": "IN_GEBRUIK", "Aantal_plaatsen": 30 }, "geometry": { "type": "Point", "coordinates": [ 4.445645497401318, 51.216191945030495 ] } },
{ "type": "Feature", "properties": { "OBJECTID": 226042, "Objecttype": "VELOSTATION", "Type_velo": "DUBBELZIJDIG", "Ligging": "MIDDENBERM", "Straatnaam": "Binnensingel (2600)", "Huisnummer": null, "Aanvulling": "aan binnensingel", "District": "BERCHEM", "Postcode": "2600", "Objectcode": "VE_0000157", "Gebruik": "IN_GEBRUIK", "Aantal_plaatsen": 36 }, "geometry": { "type": "Point", "coordinates": [ 4.421510684580257, 51.192566217925645 ] } },
{ "type": "Feature", "properties": { "OBJECTID": 226043, "Objecttype": "VELOSTATION", "Type_velo": "DUBBELZIJDIG", "Ligging": "PLEIN", "Straatnaam": "Zuidervelodroom (2018)", "Huisnummer": "55", "Aanvulling": null, "District": "ANTWERPEN", "Postcode": "2018", "Objectcode": "VE_0000158", "Gebruik": "IN_GEBRUIK", "Aantal_plaatsen": 36 }, "geometry": { "type": "Point", "coordinates": [ 4.398354572268521, 51.201938225492576 ] } },
{ "type": "Feature", "properties": { "OBJECTID": 226044, "Objecttype": "VELOSTATION", "Type_velo": "DUBBELZIJDIG", "Ligging": "VOETPAD", "Straatnaam": "Boudewijnssteeg (2018)", "Huisnummer": "1", "Aanvulling": " fase 3", "District": "ANTWERPEN", "Postcode": "2018", "Objectcode": "VE_0000159", "Gebruik": "IN_GEBRUIK", "Aantal_plaatsen": 30 }, "geometry": { "type": "Point", "coordinates": [ 4.39932133135339, 51.205538995497378 ] } },
{ "type": "Feature", "properties": { "OBJECTID": 226045, "Objecttype": "VELOSTATION", "Type_velo": "DUBBELZIJDIG", "Ligging": "GROENZONE", "Straatnaam": "Brusselstraat (2018)", "Huisnummer": "5", "Aanvulling": "to 5", "District": "ANTWERPEN", "Postcode": "2018", "Objectcode": "VE_0000160", "Gebruik": "IN_GEBRUIK", "Aantal_plaatsen": 36 }, "geometry": { "type": "Point", "coordinates": [ 4.388904014725321, 51.203341994704914 ] } },
{ "type": "Feature", "properties": { "OBJECTID": 226046, "Objecttype": "VELOSTATION", "Type_velo": "DUBBELZIJDIG", "Ligging": "VOETPAD", "Straatnaam": "Havanastraat (2030)", "Huisnummer": "1", "Aanvulling": null, "District": "ANTWERPEN", "Postcode": "2030", "Objectcode": "VE_0000201", "Gebruik": "IN_GEBRUIK", "Aantal_plaatsen": 36 }, "geometry": { "type": "Point", "coordinates": [ 4.418997113791272, 51.262755374272615 ] } },
{ "type": "Feature", "properties": { "OBJECTID": 226047, "Objecttype": "VELOSTATION", "Type_velo": "DUBBELZIJDIG", "Ligging": "GROENZONE", "Straatnaam": "Columbiastraat (2030)", "Huisnummer": null, "Aanvulling": "thv Venezuelastraat", "District": "ANTWERPEN", "Postcode": "2030", "Objectcode": "VE_0000203", "Gebruik": "IN_GEBRUIK", "Aantal_plaatsen": 36 }, "geometry": { "type": "Point", "coordinates": [ 4.423201251557952, 51.25356987490273 ] } },
{ "type": "Feature", "properties": { "OBJECTID": 226048, "Objecttype": "VELOSTATION", "Type_velo": "DUBBELZIJDIG", "Ligging": "PLEIN", "Straatnaam": "Noorderlaan (2030)", "Huisnummer": "104B-104C", "Aanvulling": null, "District": "ANTWERPEN", "Postcode": "2030", "Objectcode": "VE_0000204", "Gebruik": "IN_GEBRUIK", "Aantal_plaatsen": 36 }, "geometry": { "type": "Point", "coordinates": [ 4.420886241210829, 51.249991222561079 ] } },
{ "type": "Feature", "properties": { "OBJECTID": 226049, "Objecttype": "VELOSTATION", "Type_velo": "DUBBELZIJDIG", "Ligging": "GROENZONE", "Straatnaam": "Groenendaallaan (2030)", "Huisnummer": "397A", "Aanvulling": null, "District": "ANTWERPEN", "Postcode": "2030", "Objectcode": "VE_0000205", "Gebruik": "IN_GEBRUIK", "Aantal_plaatsen": 36 }, "geometry": { "type": "Point", "coordinates": [ 4.414447459658219, 51.244834510594295 ] } },
{ "type": "Feature", "properties": { "OBJECTID": 226050, "Objecttype": "VELOSTATION", "Type_velo": "ENKELZIJDIG", "Ligging": "PLEIN", "Straatnaam": "Bermstraat (2030)", "Huisnummer": null, "Aanvulling": "hoek Groenendaallaan", "District": "ANTWERPEN", "Postcode": "2030", "Objectcode": "VE_0000206", "Gebruik": "IN_GEBRUIK", "Aantal_plaatsen": 36 }, "geometry": { "type": "Point", "coordinates": [ 4.423143569351606, 51.244390442160693 ] } },
{ "type": "Feature", "properties": { "OBJECTID": 226051, "Objecttype": "VELOSTATION", "Type_velo": "DUBBELZIJDIG", "Ligging": "GROENZONE", "Straatnaam": "Van Praetlei (2170)", "Huisnummer": "252", "Aanvulling": "to 252", "District": "MERKSEM", "Postcode": "2170", "Objectcode": "VE_0000207", "Gebruik": "IN_GEBRUIK", "Aantal_plaatsen": 36 }, "geometry": { "type": "Point", "coordinates": [ 4.463664771559251, 51.253580202857016 ] } },
{ "type": "Feature", "properties": { "OBJECTID": 226052, "Objecttype": "VELOSTATION", "Type_velo": "ENKELZIJDIG", "Ligging": "VOETPAD", "Straatnaam": "Ringlaan (2170)", "Huisnummer": "74", "Aanvulling": "to 74", "District": "MERKSEM", "Postcode": "2170", "Objectcode": "VE_0000208", "Gebruik": "IN_GEBRUIK", "Aantal_plaatsen": 36 }, "geometry": { "type": "Point", "coordinates": [ 4.45439058485794, 51.254540303068104 ] } },
{ "type": "Feature", "properties": { "OBJECTID": 226053, "Objecttype": "VELOSTATION", "Type_velo": "DUBBELZIJDIG", "Ligging": "VOETPAD", "Straatnaam": "Korte Bremstraat (2170)", "Huisnummer": "2", "Aanvulling": "to Laaglandlaan", "District": "MERKSEM", "Postcode": "2170", "Objectcode": "VE_0000209", "Gebruik": "IN_GEBRUIK", "Aantal_plaatsen": 36 }, "geometry": { "type": "Point", "coordinates": [ 4.447145133353736, 51.256480169520223 ] } },
{ "type": "Feature", "properties": { "OBJECTID": 226054, "Objecttype": "VELOSTATION", "Type_velo": "DUBBELZIJDIG", "Ligging": "GROENZONE", "Straatnaam": "Maantjessteenweg (2170)", "Huisnummer": "175", "Aanvulling": null, "District": "MERKSEM", "Postcode": "2170", "Objectcode": "VE_0000210", "Gebruik": "IN_GEBRUIK", "Aantal_plaatsen": 36 }, "geometry": { "type": "Point", "coordinates": [ 4.43577242312285, 51.255279019616189 ] } },
{ "type": "Feature", "properties": { "OBJECTID": 226055, "Objecttype": "VELOSTATION", "Type_velo": "DUBBELZIJDIG", "Ligging": "GROENZONE", "Straatnaam": "Rodeloopstraat (2170)", "Huisnummer": "67", "Aanvulling": "to 67", "District": "MERKSEM", "Postcode": "2170", "Objectcode": "VE_0000211", "Gebruik": "IN_GEBRUIK", "Aantal_plaatsen": 36 }, "geometry": { "type": "Point", "coordinates": [ 4.437270661708439, 51.251239726371317 ] } },
{ "type": "Feature", "properties": { "OBJECTID": 226056, "Objecttype": "VELOSTATION", "Type_velo": "DUBBELZIJDIG", "Ligging": "GROENZONE", "Straatnaam": "Rodeloopstraat (2170)", "Huisnummer": "1-3", "Aanvulling": "to 1-3", "District": "MERKSEM", "Postcode": "2170", "Objectcode": "VE_0000212", "Gebruik": "IN_GEBRUIK", "Aantal_plaatsen": 36 }, "geometry": { "type": "Point", "coordinates": [ 4.442238023242618, 51.250901258330835 ] } },
{ "type": "Feature", "properties": { "OBJECTID": 226057, "Objecttype": "VELOSTATION", "Type_velo": "ENKELZIJDIG", "Ligging": "PLEIN", "Straatnaam": "Kroonplein (2170)", "Huisnummer": "28", "Aanvulling": "to 28", "District": "MERKSEM", "Postcode": "2170", "Objectcode": "VE_0000213", "Gebruik": "IN_GEBRUIK", "Aantal_plaatsen": 36 }, "geometry": { "type": "Point", "coordinates": [ 4.448062243685046, 51.251487981965155 ] } },
{ "type": "Feature", "properties": { "OBJECTID": 226058, "Objecttype": "VELOSTATION", "Type_velo": "DUBBELZIJDIG", "Ligging": "GROENZONE", "Straatnaam": "Lambrechtshoekenlaan (2170)", "Huisnummer": "133-135", "Aanvulling": null, "District": "MERKSEM", "Postcode": "2170", "Objectcode": "VE_0000214", "Gebruik": "IN_GEBRUIK", "Aantal_plaatsen": 36 }, "geometry": { "type": "Point", "coordinates": [ 4.433051933085558, 51.247974596124799 ] } },
{ "type": "Feature", "properties": { "OBJECTID": 226059, "Objecttype": "VELOSTATION", "Type_velo": "ENKELZIJDIG", "Ligging": "VOETPAD", "Straatnaam": "Nieuwdreef (2170)", "Huisnummer": "107", "Aanvulling": null, "District": "MERKSEM", "Postcode": "2170", "Objectcode": "VE_0000215", "Gebruik": "IN_GEBRUIK", "Aantal_plaatsen": 36 }, "geometry": { "type": "Point", "coordinates": [ 4.440276794513066, 51.24676034006373 ] } },
{ "type": "Feature", "properties": { "OBJECTID": 226060, "Objecttype": "VELOSTATION", "Type_velo": "DUBBELZIJDIG", "Ligging": "PLEIN", "Straatnaam": "Van Heybeeckstraat (2170)", "Huisnummer": "28", "Aanvulling": "to 28", "District": "MERKSEM", "Postcode": "2170", "Objectcode": "VE_0000216", "Gebruik": "IN_GEBRUIK", "Aantal_plaatsen": 30 }, "geometry": { "type": "Point", "coordinates": [ 4.448924279545035, 51.247257914719505 ] } },
{ "type": "Feature", "properties": { "OBJECTID": 226061, "Objecttype": "VELOSTATION", "Type_velo": "ENKELZIJDIG", "Ligging": "GROENZONE", "Straatnaam": "Bredabaan (2170)", "Huisnummer": "768", "Aanvulling": "to 768", "District": "MERKSEM", "Postcode": "2170", "Objectcode": "VE_0000217", "Gebruik": "IN_GEBRUIK", "Aantal_plaatsen": 36 }, "geometry": { "type": "Point", "coordinates": [ 4.454785612620144, 51.249088649012826 ] } },
{ "type": "Feature", "properties": { "OBJECTID": 226062, "Objecttype": "VELOSTATION", "Type_velo": "DUBBELZIJDIG", "Ligging": "PLEIN", "Straatnaam": "Ullenshofstraat (2170)", "Huisnummer": "3", "Aanvulling": "to 3", "District": "MERKSEM", "Postcode": "2170", "Objectcode": "VE_0000218", "Gebruik": "IN_GEBRUIK", "Aantal_plaatsen": 36 }, "geometry": { "type": "Point", "coordinates": [ 4.435787168220478, 51.243030738672907 ] } },
{ "type": "Feature", "properties": { "OBJECTID": 226063, "Objecttype": "VELOSTATION", "Type_velo": "DUBBELZIJDIG", "Ligging": "VOETPAD", "Straatnaam": "Borrewaterstraat (2170)", "Huisnummer": "8", "Aanvulling": null, "District": "MERKSEM", "Postcode": "2170", "Objectcode": "VE_0000219", "Gebruik": "IN_GEBRUIK", "Aantal_plaatsen": 33 }, "geometry": { "type": "Point", "coordinates": [ 4.442492654715167, 51.24218450722099 ] } },
{ "type": "Feature", "properties": { "OBJECTID": 226064, "Objecttype": "VELOSTATION", "Type_velo": "DUBBELZIJDIG", "Ligging": "PLEIN", "Straatnaam": "Sint-Bartholomeusstraat (2170)", "Huisnummer": "122", "Aanvulling": null, "District": "MERKSEM", "Postcode": "2170", "Objectcode": "VE_0000220", "Gebruik": "IN_GEBRUIK", "Aantal_plaatsen": 30 }, "geometry": { "type": "Point", "coordinates": [ 4.447350525057153, 51.243109742923288 ] } },
{ "type": "Feature", "properties": { "OBJECTID": 226065, "Objecttype": "VELOSTATION", "Type_velo": "DUBBELZIJDIG", "Ligging": "VOETPAD", "Straatnaam": "Binnenvaartstraat (2000)", "Huisnummer": null, "Aanvulling": "to Cadixstraat", "District": "ANTWERPEN", "Postcode": "2000", "Objectcode": "VE_0000222", "Gebruik": "IN_GEBRUIK", "Aantal_plaatsen": 36 }, "geometry": { "type": "Point", "coordinates": [ 4.413863538474157, 51.233341245046766 ] } },
{ "type": "Feature", "properties": { "OBJECTID": 226066, "Objecttype": "VELOSTATION", "Type_velo": "DUBBELZIJDIG", "Ligging": "VOETPAD", "Straatnaam": "Rijnkaai (2000)", "Huisnummer": "15", "Aanvulling": null, "District": "ANTWERPEN", "Postcode": "2000", "Objectcode": "VE_0000223", "Gebruik": "IN_GEBRUIK", "Aantal_plaatsen": 36 }, "geometry": { "type": "Point", "coordinates": [ 4.403080041957716, 51.233367980379938 ] } },
{ "type": "Feature", "properties": { "OBJECTID": 226067, "Objecttype": "VELOSTATION", "Type_velo": "DUBBELZIJDIG", "Ligging": "VOETPAD", "Straatnaam": "Indiëstraat (2000)", "Huisnummer": "3", "Aanvulling": null, "District": "ANTWERPEN", "Postcode": "2030", "Objectcode": "VE_0000224", "Gebruik": "IN_GEBRUIK", "Aantal_plaatsen": 36 }, "geometry": { "type": "Point", "coordinates": [ 4.409822585664036, 51.234548441637642 ] } },
{ "type": "Feature", "properties": { "OBJECTID": 226068, "Objecttype": "VELOSTATION", "Type_velo": "DUBBELZIJDIG", "Ligging": "VOETPAD", "Straatnaam": "Verbindingsdok-Oostkaai (2000)", "Huisnummer": "9", "Aanvulling": "to 9", "District": "ANTWERPEN", "Postcode": "2000", "Objectcode": "VE_0000225", "Gebruik": "IN_GEBRUIK", "Aantal_plaatsen": 36 }, "geometry": { "type": "Point", "coordinates": [ 4.407665155135269, 51.230579282946024 ] } },
{ "type": "Feature", "properties": { "OBJECTID": 226069, "Objecttype": "VELOSTATION", "Type_velo": "DUBBELZIJDIG", "Ligging": "GROENZONE", "Straatnaam": "Noordschippersdok (2060)", "Huisnummer": null, "Aanvulling": "terug naar Ijzerlaan", "District": "ANTWERPEN", "Postcode": "2060", "Objectcode": "VE_0000226", "Gebruik": "IN_GEBRUIK", "Aantal_plaatsen": 36 }, "geometry": { "type": "Point", "coordinates": [ 4.429810317765501, 51.233968047051746 ] } },
{ "type": "Feature", "properties": { "OBJECTID": 226070, "Objecttype": "VELOSTATION", "Type_velo": "ENKELZIJDIG", "Ligging": "PLEIN", "Straatnaam": "Van Cortbeemdelei (2100)", "Huisnummer": "113", "Aanvulling": "to 113 oh plein", "District": "DEURNE", "Postcode": "2100", "Objectcode": "VE_0000227", "Gebruik": "IN_GEBRUIK", "Aantal_plaatsen": 24 }, "geometry": { "type": "Point", "coordinates": [ 4.44448798500003, 51.232849146937745 ] } },
{ "type": "Feature", "properties": { "OBJECTID": 226071, "Objecttype": "VELOSTATION", "Type_velo": "ENKELZIJDIG", "Ligging": "PLEIN", "Straatnaam": "Van Deynsestraat (2100)", "Huisnummer": "120", "Aanvulling": "to 120", "District": "DEURNE", "Postcode": "2100", "Objectcode": "VE_0000228", "Gebruik": "IN_GEBRUIK", "Aantal_plaatsen": 24 }, "geometry": { "type": "Point", "coordinates": [ 4.451269251142199, 51.229791391499738 ] } },
{ "type": "Feature", "properties": { "OBJECTID": 226072, "Objecttype": "VELOSTATION", "Type_velo": "DUBBELZIJDIG", "Ligging": "GROENZONE", "Straatnaam": "Jozef Nellenslei (2100)", "Huisnummer": "26", "Aanvulling": null, "District": "DEURNE", "Postcode": "2100", "Objectcode": "VE_0000229", "Gebruik": "IN_GEBRUIK", "Aantal_plaatsen": 36 }, "geometry": { "type": "Point", "coordinates": [ 4.451950653425481, 51.226286161673833 ] } },
{ "type": "Feature", "properties": { "OBJECTID": 226073, "Objecttype": "VELOSTATION", "Type_velo": "DUBBELZIJDIG", "Ligging": "PLEIN", "Straatnaam": "Sint-Fredegandusstraat (2100)", "Huisnummer": "80", "Aanvulling": null, "District": "DEURNE", "Postcode": "2100", "Objectcode": "VE_0000230", "Gebruik": "IN_GEBRUIK", "Aantal_plaatsen": 36 }, "geometry": { "type": "Point", "coordinates": [ 4.461981121295277, 51.229171064109849 ] } },
{ "type": "Feature", "properties": { "OBJECTID": 226074, "Objecttype": "VELOSTATION", "Type_velo": "DUBBELZIJDIG", "Ligging": "GROENZONE", "Straatnaam": "Gallifortlei (2100)", "Huisnummer": "278", "Aanvulling": null, "District": "DEURNE", "Postcode": "2100", "Objectcode": "VE_0000231", "Gebruik": "IN_GEBRUIK", "Aantal_plaatsen": 36 }, "geometry": { "type": "Point", "coordinates": [ 4.467828105544831, 51.229295864744991 ] } },
{ "type": "Feature", "properties": { "OBJECTID": 226075, "Objecttype": "VELOSTATION", "Type_velo": "DUBBELZIJDIG", "Ligging": "PLEIN", "Straatnaam": "Wim Saerensplein (2100)", "Huisnummer": "25", "Aanvulling": null, "District": "DEURNE", "Postcode": "2100", "Objectcode": "VE_0000232", "Gebruik": "IN_GEBRUIK", "Aantal_plaatsen": 36 }, "geometry": { "type": "Point", "coordinates": [ 4.478564807255608, 51.228488906522379 ] } },
{ "type": "Feature", "properties": { "OBJECTID": 226076, "Objecttype": "VELOSTATION", "Type_velo": "DUBBELZIJDIG", "Ligging": "VOETPAD", "Straatnaam": "Gallifortlei (2100)", "Huisnummer": "198", "Aanvulling": null, "District": "DEURNE", "Postcode": "2100", "Objectcode": "VE_0000233", "Gebruik": "IN_GEBRUIK", "Aantal_plaatsen": 36 }, "geometry": { "type": "Point", "coordinates": [ 4.466072238436425, 51.225110962060803 ] } },
{ "type": "Feature", "properties": { "OBJECTID": 226077, "Objecttype": "VELOSTATION", "Type_velo": "ENKELZIJDIG", "Ligging": "VOETPAD", "Straatnaam": "Jan Brochovenstraat (2100)", "Huisnummer": "28", "Aanvulling": null, "District": "DEURNE", "Postcode": "2100", "Objectcode": "VE_0000234", "Gebruik": "IN_GEBRUIK", "Aantal_plaatsen": 36 }, "geometry": { "type": "Point", "coordinates": [ 4.46118429715201, 51.222201852010315 ] } },
{ "type": "Feature", "properties": { "OBJECTID": 226078, "Objecttype": "VELOSTATION", "Type_velo": "DUBBELZIJDIG", "Ligging": "PLEIN", "Straatnaam": "Cogelsplein (2100)", "Huisnummer": "19-21", "Aanvulling": null, "District": "DEURNE", "Postcode": "2100", "Objectcode": "VE_0000235", "Gebruik": "IN_GEBRUIK", "Aantal_plaatsen": 36 }, "geometry": { "type": "Point", "coordinates": [ 4.454866381859372, 51.219848447532655 ] } },
{ "type": "Feature", "properties": { "OBJECTID": 226079, "Objecttype": "VELOSTATION", "Type_velo": "DUBBELZIJDIG", "Ligging": "PLEIN", "Straatnaam": "Maurice Dequeeckerplein (2100)", "Huisnummer": "3", "Aanvulling": "to 3", "District": "DEURNE", "Postcode": "2100", "Objectcode": "VE_0000236", "Gebruik": "IN_GEBRUIK", "Aantal_plaatsen": 36 }, "geometry": { "type": "Point", "coordinates": [ 4.460005987090694, 51.219172196074837 ] } },
{ "type": "Feature", "properties": { "OBJECTID": 226080, "Objecttype": "VELOSTATION", "Type_velo": "DUBBELZIJDIG", "Ligging": "GROENZONE", "Straatnaam": "Ter Rivierenlaan (2100)", "Huisnummer": "18", "Aanvulling": null, "District": "DEURNE", "Postcode": "2100", "Objectcode": "VE_0000237", "Gebruik": "IN_GEBRUIK", "Aantal_plaatsen": 36 }, "geometry": { "type": "Point", "coordinates": [ 4.469197209833101, 51.220475965393973 ] } },
{ "type": "Feature", "properties": { "OBJECTID": 226081, "Objecttype": "VELOSTATION", "Type_velo": "ENKELZIJDIG", "Ligging": "VOETPAD", "Straatnaam": "Ertbruggelaan (2100)", "Huisnummer": "2", "Aanvulling": null, "District": "DEURNE", "Postcode": "2100", "Objectcode": "VE_0000238", "Gebruik": "IN_GEBRUIK", "Aantal_plaatsen": 24 }, "geometry": { "type": "Point", "coordinates": [ 4.475649689279153, 51.223740399571994 ] } },
{ "type": "Feature", "properties": { "OBJECTID": 226082, "Objecttype": "VELOSTATION", "Type_velo": "ENKELZIJDIG", "Ligging": "VOETPAD", "Straatnaam": "Ruggeveldlaan (2100)", "Huisnummer": "549", "Aanvulling": null, "District": "DEURNE", "Postcode": "2100", "Objectcode": "VE_0000239", "Gebruik": "IN_GEBRUIK", "Aantal_plaatsen": 30 }, "geometry": { "type": "Point", "coordinates": [ 4.479594785634852, 51.221226143736629 ] } },
{ "type": "Feature", "properties": { "OBJECTID": 226083, "Objecttype": "VELOSTATION", "Type_velo": "DUBBELZIJDIG", "Ligging": "VOETGANGERSZONE", "Straatnaam": "Ruggeveldlaan (2100)", "Huisnummer": null, "Aanvulling": null, "District": "DEURNE", "Postcode": "2100", "Objectcode": "VE_0000240", "Gebruik": "IN_GEBRUIK", "Aantal_plaatsen": 36 }, "geometry": { "type": "Point", "coordinates": [ 4.482165783467686, 51.217319011679251 ] } },
{ "type": "Feature", "properties": { "OBJECTID": 226084, "Objecttype": "VELOSTATION", "Type_velo": "DUBBELZIJDIG", "Ligging": "GROENZONE", "Straatnaam": "Collegelaan (2140)", "Huisnummer": "42-44", "Aanvulling": "to 42-44", "District": "BORGERHOUT", "Postcode": "2140", "Objectcode": "VE_0000241", "Gebruik": "IN_GEBRUIK", "Aantal_plaatsen": 36 }, "geometry": { "type": "Point", "coordinates": [ 4.453441003520969, 51.213497386333856 ] } },
{ "type": "Feature", "properties": { "OBJECTID": 226085, "Objecttype": "VELOSTATION", "Type_velo": "DUBBELZIJDIG", "Ligging": "GROENZONE", "Straatnaam": "Luitenant Lippenslaan (2140)", "Huisnummer": "2", "Aanvulling": "to 2", "District": "BORGERHOUT", "Postcode": "2140", "Objectcode": "VE_0000242", "Gebruik": "IN_GEBRUIK", "Aantal_plaatsen": 36 }, "geometry": { "type": "Point", "coordinates": [ 4.45264703938229, 51.210289897029419 ] } },
{ "type": "Feature", "properties": { "OBJECTID": 226086, "Objecttype": "VELOSTATION", "Type_velo": "DUBBELZIJDIG", "Ligging": "GROENZONE", "Straatnaam": "Herentalsebaan (2100)", "Huisnummer": "133", "Aanvulling": null, "District": "DEURNE", "Postcode": "2100", "Objectcode": "VE_0000243", "Gebruik": "IN_GEBRUIK", "Aantal_plaatsen": 36 }, "geometry": { "type": "Point", "coordinates": [ 4.458201421137629, 51.209606289091028 ] } },
{ "type": "Feature", "properties": { "OBJECTID": 226087, "Objecttype": "VELOSTATION", "Type_velo": "DUBBELZIJDIG", "Ligging": "PARKEERZONE", "Straatnaam": "Herentalsebaan (2100)", "Huisnummer": "299", "Aanvulling": null, "District": "DEURNE", "Postcode": "2100", "Objectcode": "VE_0000244", "Gebruik": "IN_GEBRUIK", "Aantal_plaatsen": 36 }, "geometry": { "type": "Point", "coordinates": [ 4.465316595347613, 51.207784397142738 ] } },
{ "type": "Feature", "properties": { "OBJECTID": 226088, "Objecttype": "VELOSTATION", "Type_velo": "ENKELZIJDIG", "Ligging": "GROENZONE", "Straatnaam": "Florent Pauwelslei (2100)", "Huisnummer": "1", "Aanvulling": "to 18", "District": "DEURNE", "Postcode": "2100", "Objectcode": "VE_0000245", "Gebruik": "IN_GEBRUIK", "Aantal_plaatsen": 36 }, "geometry": { "type": "Point", "coordinates": [ 4.471316925992786, 51.20681148450474 ] } },
{ "type": "Feature", "properties": { "OBJECTID": 226089, "Objecttype": "VELOSTATION", "Type_velo": "DUBBELZIJDIG", "Ligging": "GROENZONE", "Straatnaam": "Arenaplein (2100)", "Huisnummer": "1", "Aanvulling": "to 1", "District": "DEURNE", "Postcode": "2100", "Objectcode": "VE_0000246", "Gebruik": "IN_GEBRUIK", "Aantal_plaatsen": 36 }, "geometry": { "type": "Point", "coordinates": [ 4.458378017988291, 51.207081718556807 ] } },
{ "type": "Feature", "properties": { "OBJECTID": 226090, "Objecttype": "VELOSTATION", "Type_velo": "ENKELZIJDIG", "Ligging": "VOETPAD", "Straatnaam": "Luitenant Lippenslaan (2140)", "Huisnummer": "55-59", "Aanvulling": null, "District": "BORGERHOUT", "Postcode": "2140", "Objectcode": "VE_0000247", "Gebruik": "IN_GEBRUIK", "Aantal_plaatsen": 36 }, "geometry": { "type": "Point", "coordinates": [ 4.445967091084643, 51.208298425382353 ] } },
{ "type": "Feature", "properties": { "OBJECTID": 226091, "Objecttype": "VELOSTATION", "Type_velo": "DUBBELZIJDIG", "Ligging": "GROENZONE", "Straatnaam": "Berchemlei (2140)", "Huisnummer": "67", "Aanvulling": "to 67 thv De Schans", "District": "BORGERHOUT", "Postcode": "2140", "Objectcode": "VE_0000248", "Gebruik": "IN_GEBRUIK", "Aantal_plaatsen": 36 }, "geometry": { "type": "Point", "coordinates": [ 4.449189291168071, 51.205932799642184 ] } },
{ "type": "Feature", "properties": { "OBJECTID": 226092, "Objecttype": "VELOSTATION", "Type_velo": "DUBBELZIJDIG", "Ligging": "VOETPAD", "Straatnaam": "Frans De Vriendtstraat (2140)", "Huisnummer": "61", "Aanvulling": "to 61", "District": "BORGERHOUT", "Postcode": "2140", "Objectcode": "VE_0000249", "Gebruik": "IN_GEBRUIK", "Aantal_plaatsen": 30 }, "geometry": { "type": "Point", "coordinates": [ 4.444223371375503, 51.203788575975494 ] } },
{ "type": "Feature", "properties": { "OBJECTID": 226093, "Objecttype": "VELOSTATION", "Type_velo": "DUBBELZIJDIG", "Ligging": "VOETPAD", "Straatnaam": "Diksmuidelaan (2600)", "Huisnummer": "8", "Aanvulling": "hoek Herculusstraat", "District": "BERCHEM", "Postcode": "2600", "Objectcode": "VE_0000250", "Gebruik": "IN_GEBRUIK", "Aantal_plaatsen": 36 }, "geometry": { "type": "Point", "coordinates": [ 4.439014758213852, 51.201024077294278 ] } },
{ "type": "Feature", "properties": { "OBJECTID": 226094, "Objecttype": "VELOSTATION", "Type_velo": "DUBBELZIJDIG", "Ligging": "GROENZONE", "Straatnaam": "Arthur Matthyslaan (2140)", "Huisnummer": "76", "Aanvulling": "to 76, to Thibautstraat", "District": "BORGERHOUT", "Postcode": "2140", "Objectcode": "VE_0000251", "Gebruik": "IN_GEBRUIK", "Aantal_plaatsen": 30 }, "geometry": { "type": "Point", "coordinates": [ 4.451998527083449, 51.203946475519757 ] } },
{ "type": "Feature", "properties": { "OBJECTID": 226095, "Objecttype": "VELOSTATION", "Type_velo": "ENKELZIJDIG", "Ligging": "VOETPAD", "Straatnaam": "Karel De Preterlei (2140)", "Huisnummer": "222", "Aanvulling": "to 222", "District": "BORGERHOUT", "Postcode": "2140", "Objectcode": "VE_0000252", "Gebruik": "IN_GEBRUIK", "Aantal_plaatsen": 33 }, "geometry": { "type": "Point", "coordinates": [ 4.450252729953853, 51.200129976420264 ] } },
{ "type": "Feature", "properties": { "OBJECTID": 226096, "Objecttype": "VELOSTATION", "Type_velo": "ENKELZIJDIG", "Ligging": "PLEIN", "Straatnaam": "Vosstraat (2140)", "Huisnummer": "19", "Aanvulling": null, "District": "BORGERHOUT", "Postcode": "2140", "Objectcode": "VE_0000253", "Gebruik": "IN_GEBRUIK", "Aantal_plaatsen": 36 }, "geometry": { "type": "Point", "coordinates": [ 4.453341960552116, 51.198134276599987 ] } },
{ "type": "Feature", "properties": { "OBJECTID": 226097, "Objecttype": "VELOSTATION", "Type_velo": "DUBBELZIJDIG", "Ligging": "MIDDENBERM", "Straatnaam": "Boekenberglei (2100)", "Huisnummer": "189", "Aanvulling": null, "District": "DEURNE", "Postcode": "2100", "Objectcode": "VE_0000254", "Gebruik": "IN_GEBRUIK", "Aantal_plaatsen": 30 }, "geometry": { "type": "Point", "coordinates": [ 4.459571775950853, 51.19757367068447 ] } },
{ "type": "Feature", "properties": { "OBJECTID": 226098, "Objecttype": "VELOSTATION", "Type_velo": "ENKELZIJDIG", "Ligging": "GROENZONE", "Straatnaam": "Van den Hautelei (2100)", "Huisnummer": "90", "Aanvulling": "to 90", "District": "DEURNE", "Postcode": "2100", "Objectcode": "VE_0000255", "Gebruik": "IN_GEBRUIK", "Aantal_plaatsen": 36 }, "geometry": { "type": "Point", "coordinates": [ 4.467600409817056, 51.20416564309528 ] } },
{ "type": "Feature", "properties": { "OBJECTID": 226099, "Objecttype": "VELOSTATION", "Type_velo": "ENKELZIJDIG", "Ligging": "VOETPAD", "Straatnaam": "Helderstraat (2600)", "Huisnummer": "59", "Aanvulling": null, "District": "BERCHEM", "Postcode": "2600", "Objectcode": "VE_0000256", "Gebruik": "IN_GEBRUIK", "Aantal_plaatsen": 36 }, "geometry": { "type": "Point", "coordinates": [ 4.442223626220209, 51.195453971330032 ] } },
{ "type": "Feature", "properties": { "OBJECTID": 226100, "Objecttype": "VELOSTATION", "Type_velo": "ENKELZIJDIG", "Ligging": "PARKEERZONE", "Straatnaam": "Hofstadestraat (2600)", "Huisnummer": null, "Aanvulling": "hoek Klerkenstraat", "District": "BERCHEM", "Postcode": "2600", "Objectcode": "VE_0000257", "Gebruik": "IN_GEBRUIK", "Aantal_plaatsen": 36 }, "geometry": { "type": "Point", "coordinates": [ 4.448781526446441, 51.192336360690383 ] } },
{ "type": "Feature", "properties": { "OBJECTID": 226101, "Objecttype": "VELOSTATION", "Type_velo": "ENKELZIJDIG", "Ligging": "GROENZONE", "Straatnaam": "Lodewijk Van Berckenlaan (2140)", "Huisnummer": "127", "Aanvulling": "to 127", "District": "BERCHEM", "Postcode": "2600", "Objectcode": "VE_0000258", "Gebruik": "IN_GEBRUIK", "Aantal_plaatsen": 30 }, "geometry": { "type": "Point", "coordinates": [ 4.443914778233296, 51.19753895417675 ] } },
{ "type": "Feature", "properties": { "OBJECTID": 226102, "Objecttype": "VELOSTATION", "Type_velo": "DUBBELZIJDIG", "Ligging": "GROENZONE", "Straatnaam": "Posthofbrug (2600)", "Huisnummer": null, "Aanvulling": "thv Arbeidersstraat", "District": "BERCHEM", "Postcode": "2600", "Objectcode": "VE_0000259", "Gebruik": "IN_GEBRUIK", "Aantal_plaatsen": 36 }, "geometry": { "type": "Point", "coordinates": [ 4.437007847700394, 51.193361719302537 ] } },
{ "type": "Feature", "properties": { "OBJECTID": 226103, "Objecttype": "VELOSTATION", "Type_velo": "ENKELZIJDIG", "Ligging": "GROENZONE", "Straatnaam": "Hof ter Schriecklaan (2600)", "Huisnummer": "1", "Aanvulling": null, "District": "BERCHEM", "Postcode": "2600", "Objectcode": "VE_0000260", "Gebruik": "IN_GEBRUIK", "Aantal_plaatsen": 27 }, "geometry": { "type": "Point", "coordinates": [ 4.421675239625535, 51.189720047895314 ] } },
{ "type": "Feature", "properties": { "OBJECTID": 226104, "Objecttype": "VELOSTATION", "Type_velo": "DUBBELZIJDIG", "Ligging": "GROENZONE", "Straatnaam": "Henri Prostlaan (2600)", "Huisnummer": "5", "Aanvulling": "eind vd keerlus", "District": "BERCHEM", "Postcode": "2600", "Objectcode": "VE_0000261", "Gebruik": "IN_GEBRUIK", "Aantal_plaatsen": 36 }, "geometry": { "type": "Point", "coordinates": [ 4.42955485488763, 51.188700635964032 ] } },
{ "type": "Feature", "properties": { "OBJECTID": 226105, "Objecttype": "VELOSTATION", "Type_velo": "DUBBELZIJDIG", "Ligging": "GROENZONE", "Straatnaam": "Rooi (2600)", "Huisnummer": null, "Aanvulling": "thv Achtersteveld", "District": "BERCHEM", "Postcode": "2600", "Objectcode": "VE_0000262", "Gebruik": "IN_GEBRUIK", "Aantal_plaatsen": 36 }, "geometry": { "type": "Point", "coordinates": [ 4.435505144240652, 51.189313287605664 ] } },
{ "type": "Feature", "properties": { "OBJECTID": 226106, "Objecttype": "VELOSTATION", "Type_velo": "ENKELZIJDIG", "Ligging": "MIDDENBERM", "Straatnaam": "Fruithoflaan (2600)", "Huisnummer": "85", "Aanvulling": "to 85 middenberm", "District": "BERCHEM", "Postcode": "2600", "Objectcode": "VE_0000263", "Gebruik": "IN_GEBRUIK", "Aantal_plaatsen": 36 }, "geometry": { "type": "Point", "coordinates": [ 4.440859642497048, 51.184453393870108 ] } },
{ "type": "Feature", "properties": { "OBJECTID": 226107, "Objecttype": "VELOSTATION", "Type_velo": "DUBBELZIJDIG", "Ligging": "PLEIN", "Straatnaam": "Filip Williotstraat (2600)", "Huisnummer": "11", "Aanvulling": null, "District": "BERCHEM", "Postcode": "2600", "Objectcode": "VE_0000264", "Gebruik": "IN_GEBRUIK", "Aantal_plaatsen": 36 }, "geometry": { "type": "Point", "coordinates": [ 4.435161038254458, 51.187611439533846 ] } },
{ "type": "Feature", "properties": { "OBJECTID": 226108, "Objecttype": "VELOSTATION", "Type_velo": "DUBBELZIJDIG", "Ligging": "VOETPAD", "Straatnaam": "Pulhoflaan (2600)", "Huisnummer": null, "Aanvulling": "thv Lappersbrug", "District": "BERCHEM", "Postcode": "2600", "Objectcode": "VE_0000265", "Gebruik": "IN_GEBRUIK", "Aantal_plaatsen": 36 }, "geometry": { "type": "Point", "coordinates": [ 4.432000569101445, 51.185158272033327 ] } },
{ "type": "Feature", "properties": { "OBJECTID": 226109, "Objecttype": "VELOSTATION", "Type_velo": "ENKELZIJDIG", "Ligging": "MIDDENBERM", "Straatnaam": "Fruithoflaan (2600)", "Huisnummer": "3-5", "Aanvulling": "to 3-5", "District": "BERCHEM", "Postcode": "2600", "Objectcode": "VE_0000266", "Gebruik": "IN_GEBRUIK", "Aantal_plaatsen": 36 }, "geometry": { "type": "Point", "coordinates": [ 4.4348175744934, 51.180814407725073 ] } },
{ "type": "Feature", "properties": { "OBJECTID": 226110, "Objecttype": "VELOSTATION", "Type_velo": "DUBBELZIJDIG", "Ligging": "GROENZONE", "Straatnaam": "Prins Leopoldlaan (2600)", "Huisnummer": "36", "Aanvulling": "to 36 od hoek", "District": "BERCHEM", "Postcode": "2600", "Objectcode": "VE_0000267", "Gebruik": "IN_GEBRUIK", "Aantal_plaatsen": 36 }, "geometry": { "type": "Point", "coordinates": [ 4.423351702706049, 51.185817678542932 ] } },
{ "type": "Feature", "properties": { "OBJECTID": 226111, "Objecttype": "VELOSTATION", "Type_velo": "ENKELZIJDIG", "Ligging": "VOETPAD", "Straatnaam": "Lindendreef (2020)", "Huisnummer": null, "Aanvulling": null, "District": "ANTWERPEN", "Postcode": "2020", "Objectcode": "VE_0000268", "Gebruik": "IN_GEBRUIK", "Aantal_plaatsen": 36 }, "geometry": { "type": "Point", "coordinates": [ 4.418483964849578, 51.183048565053312 ] } },
{ "type": "Feature", "properties": { "OBJECTID": 226112, "Objecttype": "VELOSTATION", "Type_velo": "DUBBELZIJDIG", "Ligging": "GROENZONE", "Straatnaam": "Troyentenhoflaan (2600)", "Huisnummer": "120-122", "Aanvulling": null, "District": "BERCHEM", "Postcode": "2600", "Objectcode": "VE_0000269", "Gebruik": "IN_GEBRUIK", "Aantal_plaatsen": 36 }, "geometry": { "type": "Point", "coordinates": [ 4.424378668157033, 51.183096811211492 ] } },
{ "type": "Feature", "properties": { "OBJECTID": 226113, "Objecttype": "VELOSTATION", "Type_velo": "ENKELZIJDIG", "Ligging": "GROENZONE", "Straatnaam": "Eglantierlaan (2610)", "Huisnummer": "1", "Aanvulling": null, "District": "ANTWERPEN", "Postcode": "2020", "Objectcode": "VE_0000270", "Gebruik": "IN_GEBRUIK", "Aantal_plaatsen": 36 }, "geometry": { "type": "Point", "coordinates": [ 4.404100238977717, 51.186385043475525 ] } },
{ "type": "Feature", "properties": { "OBJECTID": 226114, "Objecttype": "VELOSTATION", "Type_velo": "DUBBELZIJDIG", "Ligging": "GROENZONE", "Straatnaam": "Beukenlaan (2020)", "Huisnummer": "24", "Aanvulling": "to 24 hoek Middelheimlaan", "District": "ANTWERPEN", "Postcode": "2020", "Objectcode": "VE_0000271", "Gebruik": "IN_GEBRUIK", "Aantal_plaatsen": 36 },